gauge_id;gauge_name;country;gauge_lat;gauge_lon;area
camels_01013500;Fish River near Fort Kent, Maine;United States of America;47.237390000000000;-68.582640000000000;2,297.683154625430000
camels_01022500;Narraguagus River at Cherryfield, Maine;United States of America;44.607970000000000;-67.935240000000000;619.102595403050000
camels_01030500;Mattawamkeag River near Mattawamkeag, Maine;United States of America;45.500970000000000;-68.305960000000000;3,666.943011361580000
camels_01031500;Piscataquis River near Dover-Foxcroft, Maine;United States of America;45.175010000000000;-69.314700000000000;764.824148784767000
camels_01047000;Carrabassett River near North Anson, Maine;United States of America;44.869200000000000;-69.955100000000000;902.895075916118000
camels_01052500;Diamond River near Wentworth Location, NH;United States of America;44.877390000000000;-71.057490000000000;395.444910216613000
camels_01054200;Wild River at Gilead, Maine;United States of America;44.390440000000000;-70.979640000000000;180.835782586385000
camels_01055000;Swift River near Roxbury, Maine;United States of America;44.642750000000000;-70.588780000000000;250.426116562828000
camels_01057000;Little Androscoggin River near South Paris, Maine;United States of America;44.303990000000000;-70.539680000000000;197.428263567453000
camels_01073000;OYSTER RIVER NEAR DURHAM, NH;United States of America;43.148700000000000;-70.965060000000000;32.107003148228800
camels_01078000;SMITH RIVER NEAR BRISTOL, NH;United States of America;43.566460000000000;-71.747860000000000;221.561285121518000
camels_01118300;PENDLETON HILL BROOK NEAR CLARKS FALLS, CT.;United States of America;41.474820000000000;-71.834240000000000;13.700935297464000
camels_01121000;MOUNT HOPE RIVER NEAR WARRENVILLE, CT.;United States of America;41.843710000000000;-72.168970000000000;94.394412509068100
camels_01123000;LITTLE RIVER NEAR HANOVER, CT.;United States of America;41.671770000000000;-72.052300000000000;83.918802897324100
camels_01134500;MOOSE RIVER AT VICTORY, VT;United States of America;44.511720000000000;-71.837310000000000;209.095339391234000
camels_01137500;AMMONOOSUC RIVER AT BETHLEHEM JUNCTION, NH;United States of America;44.268670000000000;-71.630360000000000;237.807408812272000
camels_01139000;WELLS RIVER AT WELLS RIVER, VT;United States of America;44.150340000000000;-72.065090000000000;258.983211787008000
camels_01139800;EAST ORANGE BRANCH AT EAST ORANGE, VT;United States of America;44.092840000000000;-72.335650000000000;24.978150451164100
camels_01142500;AYERS BROOK AT RANDOLPH, VT;United States of America;43.934510000000000;-72.657880000000000;79.630462791172700
camels_01144000;WHITE RIVER AT WEST HARTFORD, VT;United States of America;43.714240000000000;-72.418150000000000;1,777.408716575920000
camels_01162500;PRIEST BROOK NEAR WINCHENDON, MA;United States of America;42.682590000000000;-72.115080000000000;77.945759883343000
camels_01169000;NORTH RIVER AT SHATTUCKVILLE, MA;United States of America;42.638420000000000;-72.725090000000000;233.453196852846000
camels_01170100;GREEN RIVER NEAR COLRAIN, MA;United States of America;42.703420000000000;-72.670650000000000;109.178942741142000
camels_01181000;WEST BRANCH WESTFIELD RIVER AT HUNTINGTON, MA;United States of America;42.237310000000000;-72.895650000000000;244.861975313555000
camels_01187300;HUBBARD RIVER NR. WEST HARTLAND, CT.;United States of America;42.037320000000000;-72.938990000000000;53.917752332564400
camels_01195100;INDIAN RIVER NEAR CLINTON, CT.;United States of America;41.305930000000000;-72.531200000000000;16.075904890969000
camels_01333000;GREEN RIVER AT WILLIAMSTOWN, MA;United States of America;42.708970000000000;-73.196770000000000;111.322694826113000
camels_01350000;SCHOHARIE CREEK AT PRATTSVILLE NY;United States of America;42.319530000000000;-74.436540000000000;613.646053156419000
camels_01350080;MANOR KILL AT WEST CONESVILLE NEAR GILBOA NY;United States of America;42.377030000000000;-74.412920000000000;89.526011830562200
camels_01350140;MINE KILL NEAR NORTH BLENHEIM NY;United States of America;42.428970000000000;-74.472930000000000;47.673378832637200
camels_01365000;RONDOUT CREEK NEAR LOWES CORNERS NY;United States of America;41.866480000000000;-74.487100000000000;102.602861395338000
camels_01411300;TUCKAHOE RIVER AT HEAD OF RIVER NJ;United States of America;39.306940000000000;-74.820560000000000;79.230476168040900
camels_01413500;EAST BR DELAWARE R AT MARGARETVILLE NY;United States of America;42.144810000000000;-74.653490000000000;433.235738812852000
camels_01414500;MILL BROOK NEAR DUNRAVEN NY;United States of America;42.106200000000000;-74.730430000000000;67.189492032070200
camels_01415000;TREMPER KILL NEAR ANDES NY;United States of America;42.120090000000000;-74.818490000000000;86.589603575945900
camels_01423000;WEST BRANCH DELAWARE RIVER AT WALTON NY;United States of America;42.166200000000000;-75.139890000000000;860.702176423134000
camels_01434025;BISCUIT BK ABOVE PIGEON BK AT FROST VALLEY NY;United States of America;41.995370000000000;-74.500990000000000;9.876233731377710
camels_01435000;NEVERSINK RIVER NEAR CLARYVILLE NY;United States of America;41.890090000000000;-74.589880000000000;183.200162837372000
camels_01439500;Bush Kill at Shoemakers, PA;United States of America;41.088150000000000;-75.037670000000000;305.756493312815000
camels_01440000;FLAT BROOK NEAR FLATBROOKVILLE NJ;United States of America;41.106670000000000;-74.952220000000000;171.368265995015000
camels_01440400;Brodhead Creek near Analomink, PA;United States of America;41.084810000000000;-75.214620000000000;178.503303478859000
camels_01451800;Jordan Creek near Schnecksville, PA;United States of America;40.661760000000000;-75.626850000000000;148.575983950804000
camels_01466500;MCDONALDS BRANCH IN LEBANON STATE FOREST NJ;United States of America;39.885000000000000;-74.505280000000000;6.303865584305410
camels_01484100;BEAVERDAM BRANCH AT HOUSTON, DE;United States of America;38.905780000000000;-75.512750000000000;9.604486721605330
camels_01485500;NASSAWANGO CREEK NEAR SNOW HILL, MD;United States of America;38.228920000000000;-75.471440000000000;112.807507471054000
camels_01486000;MANOKIN BRANCH NEAR PRINCESS ANNE, MD;United States of America;38.213890000000000;-75.671390000000000;16.038361880456200
camels_01487000;NANTICOKE RIVER NEAR BRIDGEVILLE, DE;United States of America;38.728330000000000;-75.561860000000000;187.283874508075000
camels_01491000;CHOPTANK RIVER NEAR GREENSBORO, MD;United States of America;38.997190000000000;-75.785810000000000;291.553355328666000
camels_01510000;OTSELIC RIVER AT CINCINNATUS NY;United States of America;42.541180000000000;-75.899640000000000;382.267018787386000
camels_01516500;Corey Creek near Mainesburg, PA;United States of America;41.790910000000000;-77.014690000000000;31.607401247202700
camels_01518862;Cowanesque River at Westfield, PA;United States of America;41.923130000000000;-77.531930000000000;234.177337658497000
camels_01532000;Towanda Creek near Monroeton, PA;United States of America;41.707020000000000;-76.484670000000000;556.026015381219000
camels_01539000;Fishing Creek near Bloomsburg, PA;United States of America;41.078140000000000;-76.431060000000000;704.169636317420000
camels_01542810;Waldy Run near Emporium, PA;United States of America;41.578950000000000;-78.292510000000000;13.676262148717700
camels_01543000;Driftwood Br Sinnemahoning Cr at Sterling Run, PA;United States of America;41.413400000000000;-78.196950000000000;703.744993924783000
camels_01543500;Sinnemahoning Creek at Sinnemahoning, PA;United States of America;41.317280000000000;-78.103060000000000;1,776.590721502530000
camels_01544500;Kettle Creek at Cross Fork, PA;United States of America;41.475900000000000;-77.825820000000000;362.780576862295000
camels_01545600;Young Womans Creek near Renovo, PA;United States of America;41.389510000000000;-77.690820000000000;123.395357972501000
camels_01547700;Marsh Creek at Blanchard, PA;United States of America;41.059510000000000;-77.605830000000000;115.044635739209000
camels_01548500;Pine Creek at Cedar Run, PA;United States of America;41.521740000000000;-77.447480000000000;1,555.226267207170000
camels_01549500;Blockhouse Creek near English Center, PA;United States of America;41.473680000000000;-77.230810000000000;98.674562971141000
camels_01550000;Lycoming Creek near Trout Run, PA;United States of America;41.418410000000000;-77.032750000000000;455.640264826703000
camels_01552000;Loyalsock Creek at Loyalsockville, PA;United States of America;41.325080000000000;-76.912460000000000;1,127.701631739720000
camels_01552500;Muncy Creek near Sonestown, PA;United States of America;41.357020000000000;-76.534670000000000;62.073546339750900
camels_01557500;Bald Eagle Creek at Tyrone, PA;United States of America;40.683670000000000;-78.233620000000000;117.783376173188000
camels_01567500;Bixler Run near Loysville, PA;United States of America;40.370920000000000;-77.402210000000000;39.559773818841900
camels_01568000;Sherman Creek at Shermans Dale, PA;United States of America;40.323420000000000;-77.168870000000000;535.887518281618000
camels_01580000;DEER CREEK AT ROCKS, MD;United States of America;39.629970000000000;-76.403310000000000;246.850304317149000
camels_01583500;WESTERN RUN AT WESTERN RUN, MD;United States of America;39.510780000000000;-76.676500000000000;163.398112518753000
camels_01586610;MORGAN RUN NEAR LOUISVILLE, MD;United States of America;39.451890000000000;-76.955310000000000;72.788656275630600
camels_01591400;CATTAIL CREEK NEAR GLENWOOD, MD;United States of America;39.255970000000000;-77.051060000000000;59.557469678755600
camels_01594950;MCMILLAN F NEAR FORT PENDLETON, MD;United States of America;39.276690000000000;-79.390310000000000;6.138013829951480
camels_01596500;SAVAGE RIVER NEAR BARTON, MD;United States of America;39.570060000000000;-79.101940000000000;127.610176097053000
camels_01605500;SOUTH BRANCH POTOMAC RIVER AT FRANKLIN, WV;United States of America;38.635670000000000;-79.337820000000000;474.173241655858000
camels_01606500;SO. BRANCH POTOMAC RIVER NR PETERSBURG, WV;United States of America;38.991220000000000;-79.175870000000000;1,685.174708203910000
camels_01613050;Tonoloway Creek near Needmore, PA;United States of America;39.898420000000000;-78.132230000000000;27.894648546943000
camels_01620500;NORTH RIVER NEAR STOKESVILLE, VA;United States of America;38.337630000000000;-79.240040000000000;61.127177896482300
camels_01632000;N F SHENANDOAH RIVER AT COOTES STORE, VA;United States of America;38.637060000000000;-78.852800000000000;546.704387487695000
camels_01632900;SMITH CREEK NEAR NEW MARKET, VA;United States of America;38.693450000000000;-78.642790000000000;248.823610336667000
camels_01634500;CEDAR CREEK NEAR WINCHESTER, VA;United States of America;39.081220000000000;-78.329450000000000;264.226779904337000
camels_01638480;CATOCTIN CREEK AT TAYLORSTOWN, VA;United States of America;39.254550000000000;-77.576380000000000;233.587289211870000
camels_01639500;BIG PIPE CREEK AT BRUCEVILLE, MD;United States of America;39.612360000000000;-77.237440000000000;266.960888401490000
camels_01644000;GOOSE CREEK NEAR LEESBURG, VA;United States of America;39.019550000000000;-77.577490000000000;858.811596440118000
camels_01658500;S F QUANTICO CREEK NEAR INDEPENDENT HILL, VA;United States of America;38.587340000000000;-77.428600000000000;23.782679298423500
camels_01664000;RAPPAHANNOCK RIVER AT REMINGTON, VA;United States of America;38.530680000000000;-77.813600000000000;1,603.511552246230000
camels_01666500;ROBINSON RIVER NEAR LOCUST DALE, VA;United States of America;38.325130000000000;-78.095560000000000;465.638008085254000
camels_01667500;RAPIDAN RIVER NEAR CULPEPER, VA;United States of America;38.350410000000000;-77.975000000000000;1,209.918944244270000
camels_01669000;PISCATAWAY CREEK NEAR TAPPAHANNOCK, VA;United States of America;37.877080000000000;-76.900520000000000;75.194502091006900
camels_01669520;DRAGON SWAMP AT MASCOT, VA;United States of America;37.633750000000000;-76.696350000000000;277.316522580590000
camels_02011400;JACKSON RIVER NEAR BACOVA, VA;United States of America;38.042350000000000;-79.881440000000000;409.810927324102000
camels_02011460;BACK CREEK NEAR SUNRISE, VA;United States of America;38.245400000000000;-79.768660000000000;235.307515823549000
camels_02013000;DUNLAP CREEK NEAR COVINGTON, VA;United States of America;37.802900000000000;-80.047000000000000;436.076147953138000
camels_02014000;POTTS CREEK NEAR COVINGTON, VA;United States of America;37.729010000000000;-80.042280000000000;396.988681736401000
camels_02015700;BULLPASTURE RIVER AT WILLIAMSVILLE, VA;United States of America;38.195400000000000;-79.570320000000000;286.377206711085000
camels_02016000;COWPASTURE RIVER NEAR CLIFTON FORGE, VA;United States of America;37.791800000000000;-79.759490000000000;1,193.966562625130000
camels_02017500;JOHNS CREEK AT NEW CASTLE, VA;United States of America;37.506240000000000;-80.106710000000000;285.258406179084000
camels_02018000;CRAIG CREEK AT PARR, VA;United States of America;37.665960000000000;-79.911440000000000;851.702188085878000
camels_02027000;TYE RIVER NEAR LOVINGSTON, VA;United States of America;37.715420000000000;-78.981690000000000;241.328860136296000
camels_02027500;PINEY RIVER AT PINEY RIVER, VA;United States of America;37.702360000000000;-79.027520000000000;127.912806875790000
camels_02028500;ROCKFISH RIVER NEAR GREENFIELD, VA;United States of America;37.869590000000000;-78.823350000000000;246.266086761163000
camels_02038850;HOLIDAY CREEK NEAR ANDERSONVILLE, VA;United States of America;37.415420000000000;-78.635840000000000;23.651483591997100
camels_02046000;STONY CREEK NEAR DINWIDDIE, VA;United States of America;37.067090000000000;-77.602490000000000;290.914045053388000
camels_02051000;NORTH MEHERRIN RIVER NEAR LUNENBURG, VA;United States of America;36.997370000000000;-78.349720000000000;144.779476815391000
camels_02051500;MEHERRIN RIVER NEAR LAWRENCEVILLE, VA;United States of America;36.716810000000000;-77.831660000000000;1,431.775131383130000
camels_02053200;POTECASI CREEK NEAR UNION, NC;United States of America;36.370830000000000;-77.025560000000000;581.305345149523000
camels_02053800;S F ROANOKE RIVER NEAR SHAWSVILLE, VA;United States of America;37.140130000000000;-80.266430000000000;288.297413784497000
camels_02055100;TINKER CREEK NEAR DALEVILLE, VA;United States of America;37.417630000000000;-79.935320000000000;33.239896393246900
camels_02056900;BLACKWATER RIVER NEAR ROCKY MOUNT, VA;United States of America;37.045140000000000;-79.844200000000000;299.192768059753000
camels_02059500;GOOSE CREEK NEAR HUDDLESTON, VA;United States of America;37.173200000000000;-79.520310000000000;486.233295296614000
camels_02064000;FALLING RIVER NEAR NARUNA, VA;United States of America;37.126810000000000;-78.959740000000000;427.706548656737000
camels_02065500;CUB CREEK AT PHENIX, VA;United States of America;37.079310000000000;-78.763620000000000;252.682472647051000
camels_02069700;SOUTH MAYO RIVER NEAR NETTLERIDGE, VA;United States of America;36.570970000000000;-80.129490000000000;228.803258708854000
camels_02070000;NORTH MAYO RIVER NEAR SPENCER, VA;United States of America;36.568190000000000;-79.987260000000000;278.859448382366000
camels_02074500;SANDY RIVER NEAR DANVILLE, VA;United States of America;36.619580000000000;-79.504190000000000;288.736598035429000
camels_02077200;HYCO CREEK NEAR LEASBURG, NC;United States of America;36.397780000000000;-79.196670000000000;126.356352953404000
camels_02081500;TAR RIVER NEAR TAR RIVER, NC;United States of America;36.194170000000000;-78.583060000000000;432.970156680480000
camels_02082950;LITTLE FISHING CREEK NEAR WHITE OAK, NC;United States of America;36.183330000000000;-77.876110000000000;461.381500378830000
camels_02092500;TRENT RIVER NEAR TRENTON, NC;United States of America;35.064170000000000;-77.461390000000000;435.060783471087000
camels_02096846;CANE CREEK NEAR ORANGE GROVE, NC;United States of America;35.987220000000000;-79.206110000000000;19.616216495345900
camels_02102908;FLAT CREEK NEAR INVERNESS, NC;United States of America;35.182780000000000;-79.177500000000000;20.187180738717100
camels_02108000;NORTHEAST CAPE FEAR RIVER NEAR CHINQUAPIN, NC;United States of America;34.828890000000000;-77.832220000000000;1,567.000831603630000
camels_02111180;ELK CREEK AT ELKVILLE, NC;United States of America;36.071390000000000;-81.403060000000000;131.143422291193000
camels_02111500;REDDIES RIVER AT NORTH WILKESBORO, NC;United States of America;36.175000000000000;-81.168890000000000;233.107409835037000
camels_02112120;ROARING RIVER NEAR ROARING RIVER, NC;United States of America;36.250280000000000;-81.044440000000000;329.764990970222000
camels_02112360;MITCHELL RIVER NEAR STATE ROAD, NC;United States of America;36.311390000000000;-80.807220000000000;206.776128626920000
camels_02118500;HUNTING CREEK NEAR HARMONY, NC;United States of America;36.000560000000000;-80.745560000000000;400.442165557725000
camels_02125000;BIG BEAR CR NR RICHFIELD, NC;United States of America;35.334720000000000;-80.335560000000000;144.686353656480000
camels_02128000;LITTLE RIVER NEAR STAR, NC;United States of America;35.387220000000000;-79.831390000000000;271.850952647841000
camels_02137727;CATAWBA R NR PLEASANT GARDENS, NC;United States of America;35.685830000000000;-82.060280000000000;329.015592132666000
camels_02140991;JOHNS RIVER AT ARNEYS STORE, NC;United States of America;35.833610000000000;-81.711940000000000;522.071882493951000
camels_02143000;HENRY FORK NEAR HENRY RIVER, NC;United States of America;35.684440000000000;-81.403330000000000;222.233644145876000
camels_02143040;JACOB FORK AT RAMSEY, NC;United States of America;35.590690000000000;-81.567040000000000;68.177538889880300
camels_02149000;COVE CREEK NEAR LAKE LURE, NC;United States of America;35.423450000000000;-82.111500000000000;203.810528224416000
camels_02152100;FIRST BROAD RIVER NEAR CASAR, NC;United States of America;35.493060000000000;-81.682220000000000;156.463530804359000
camels_02177000;CHATTOOGA RIVER NEAR CLAYTON, GA;United States of America;34.813980000000000;-83.305990000000000;527.190835896152000
camels_02178400;TALLULAH RIVER NEAR CLAYTON, GA;United States of America;34.890370000000000;-83.530440000000000;152.145910676588000
camels_02193340;KETTLE CREEK NEAR WASHINGTON, GA;United States of America;33.682630000000000;-82.857920000000000;89.735427298938300
camels_02196000;STEVENS CREEK NEAR MODOC, SC;United States of America;33.729300000000000;-82.181790000000000;1,408.817430020210000
camels_02198100;BEAVERDAM CREEK NEAR SARDIS, GA;United States of America;32.937660000000000;-81.815390000000000;79.766794906373600
camels_02202600;BLACK CREEK NEAR BLITCHTON, GA;United States of America;32.167980000000000;-81.488170000000000;623.906680673049000
camels_02212600;FALLING CREEK NEAR JULIETTE, GA;United States of America;33.099850000000000;-83.723510000000000;190.097201792172000
camels_02215100;TUCSAWHATCHEE CREEK NEAR HAWKINSVILLE, GA;United States of America;32.239440000000000;-83.501670000000000;425.997803014463000
camels_02216180;TURNPIKE CREEK NEAR MCRAE, GA;United States of America;31.991390000000000;-82.921940000000000;128.310080604590000
camels_02221525;MURDER CREEK BELOW EATONTON, GA;United States of America;33.252360000000000;-83.481280000000000;493.762632113246000
camels_02231000;ST. MARYS RIVER NR MACCLENNY, FLA.;United States of America;30.358850000000000;-82.081500000000000;1,858.801317358750000
camels_02231342;FT DRUM CREEK AT SUNSHINE ST PKY NEAR FT DRUM, FL;United States of America;27.568650000000000;-80.796170000000000;194.253253948068000
camels_02235200;BLACKWATER CREEK NEAR CASSIA, FL;United States of America;28.874530000000000;-81.489380000000000;300.930420151239000
camels_02245500;SOUTH FORK BLACK CREEK NR PENNEY FARMS, FLA.;United States of America;29.979410000000000;-81.852040000000000;351.640013538957000
camels_02246000;NORTH FORK BLACK CREEK NR MIDDLEBURG, FLA.;United States of America;30.113300000000000;-81.906490000000000;451.681722303716000
camels_02296500;CHARLIE CREEK NEAR GARDNER FL;United States of America;27.375040000000000;-81.796470000000000;893.999274154315000
camels_02297155;HORSE CREEK NEAR MYAKKA HEAD FL;United States of America;27.487260000000000;-82.023420000000000;98.127849059351500
camels_02297310;HORSE CREEK NEAR ARCADIA FL;United States of America;27.199490000000000;-81.988420000000000;537.910460523831000
camels_02298123;PRAIRIE CREEK NEAR FORT OGDEN FL;United States of America;27.052000000000000;-81.784530000000000;541.998322685920000
camels_02298608;MYAKKA RIVER AT MYAKKA CITY FL;United States of America;27.343660000000000;-82.156760000000000;314.397633670785000
camels_02299950;MANATEE RIVER NEAR MYAKKA HEAD FL;United States of America;27.473650000000000;-82.211200000000000;177.463076051673000
camels_02300700;BULLFROG CREEK NEAR WIMAUMA FL;United States of America;27.791970000000000;-82.352040000000000;85.974952414796000
camels_02310947;WITHLACOOCHEE RIVER NEAR CUMPRESSCO, FLA.;United States of America;28.311950000000000;-82.055910000000000;582.543340137439000
camels_02312200;LITTLE WITHLACOOCHEE RIVER AT RERDELL, FLA.;United States of America;28.572770000000000;-82.155360000000000;467.482684387407000
camels_02314500;SUWANNEE RIVER AT US 441, AT FARGO, GA;United States of America;30.680560000000000;-82.560560000000000;2,811.062565362300000
camels_02315500;SUWANNEE RIVER AT WHITE SPRINGS, FLA.;United States of America;30.325780000000000;-82.738180000000000;5,921.059561630090000
camels_02324400;FENHOLLOWAY RIVER NEAR FOLEY, FLA.;United States of America;30.098270000000000;-83.471810000000000;210.414453603602000
camels_02327100;SOPCHOPPY RIVER NR SOPCHOPPY, FLA.;United States of America;30.129370000000000;-84.494350000000000;299.928336065682000
camels_02342933;SOUTH FORK COWIKEE CREEK NEAR BATESVILLE AL;United States of America;32.017660000000000;-85.295770000000000;290.445278665267000
camels_02349900;TURKEY CREEK AT BYROMVILLE, GA;United States of America;32.195560000000000;-83.902220000000000;124.430429702827000
camels_02350900;KINCHAFOONEE CREEK NEAR DAWSON, GA;United States of America;31.764440000000000;-84.253330000000000;1,366.441543857640000
camels_02361000;CHOCTAWHATCHEE RIVER NEAR NEWTON, AL.;United States of America;31.342950000000000;-85.610490000000000;1,780.619397005530000
camels_02363000;PEA RIVER NEAR ARITON AL;United States of America;31.594890000000000;-85.783000000000000;1,293.706711347570000
camels_02369800;BLACKWATER RIVER NEAR BRADLEY AL;United States of America;31.027680000000000;-86.709960000000000;231.257767596416000
camels_02371500;CONECUH RIVER AT BRANTLEY AL;United States of America;31.573500000000000;-86.251620000000000;1,258.895960096500000
camels_02372250;PATSALIGA CREEK NEAR BRANTLEY AL;United States of America;31.596270000000000;-86.405520000000000;1,146.055809356990000
camels_02374500;MURDER CREEK NEAR EVERGREEN AL;United States of America;31.418500000000000;-86.986640000000000;458.770358955931000
camels_02381600;FAUSETT CREEK NEAR TALKING ROCK, GA;United States of America;34.570370000000000;-84.468820000000000;10.326709480794400
camels_02384540;MILL CREEK NEAR CRANDALL, GA;United States of America;34.872020000000000;-84.721330000000000;22.258165364434100
camels_02395120;TWO RUN CREEK NEAR KINGSTON, GA;United States of America;34.242780000000000;-84.889720000000000;85.218111702118100
camels_02408540;HATCHET CREEK BELOW ROCKFORD AL;United States of America;32.916790000000000;-86.270250000000000;684.033121601630000
camels_02415000;HILLABEE CREEK NEAR HACKNEYVILLE AL;United States of America;33.066790000000000;-85.879130000000000;491.765151585848000
camels_02422500;MULBERRY CREEK AT JONES AL;United States of America;32.582910000000000;-86.903600000000000;600.166503745740000
camels_02427250;PINE BARREN CREEK NEAR SNOW HILL, AL.;United States of America;31.996260000000000;-87.068320000000000;681.161703924255000
camels_02430085;RED BUD CREEK NR MOORES MILL, MS;United States of America;34.466670000000000;-88.283610000000000;40.725105027860500
camels_02430615;MUD CREEK NR FAIRVIEW, MS;United States of America;34.392500000000000;-88.355000000000000;32.634782938143600
camels_02450250;SIPSEY FORK NEAR GRAYSON AL;United States of America;34.285380000000000;-87.398910000000000;242.386246904783000
camels_02464000;NORTH RIVER NEAR SAMANTHA AL;United States of America;33.479280000000000;-87.597230000000000;582.272777414134000
camels_02464146;TURKEY CREEK NEAR TUSCALOOSA;United States of America;33.413450000000000;-87.510560000000000;15.828035902889300
camels_02464360;BINION CREEK BELOW GIN CREEK NEAR SAMANTHA AL;United States of America;33.424840000000000;-87.642510000000000;149.049868186991000
camels_02465493;ELLIOTTS CREEK AT MOUNDVILLE AL;United States of America;32.997350000000000;-87.622230000000000;86.601405347355700
camels_02469800;SATILPA CREEK NEAR COFFEEVILLE AL;United States of America;31.744320000000000;-88.022510000000000;423.537595230803000
camels_02472000;LEAF RIVER NR COLLINS, MS;United States of America;31.706940000000000;-89.406940000000000;1,929.072083503980000
camels_02472500;BOUIE CREEK NR HATTIESBURG, MS;United States of America;31.425830000000000;-89.414720000000000;790.635925565490000
camels_02479155;CYPRESS CREEK NR JANICE, MS;United States of America;31.025280000000000;-89.016670000000000;138.498460840003000
camels_02479300;RED CREEK AT VESTRY, MS;United States of America;30.736110000000000;-88.781110000000000;1,154.319211884190000
camels_02479560;ESCATAWPA RIVER NEAR AGRICOLA MS;United States of America;30.809080000000000;-88.458630000000000;1,457.818343174480000
camels_02481000;BILOXI RIVER AT WORTHAM, MS;United States of America;30.558610000000000;-89.121940000000000;250.795686186884000
camels_02481510;WOLF RIVER NR LANDON, MS;United States of America;30.483610000000000;-89.274440000000000;802.299243911972000
camels_03010655;Oswayo Creek at Shinglehouse, PA;United States of America;41.961730000000000;-78.198070000000000;254.659337711938000
camels_03011800;Kinzua Creek near Guffey, PA;United States of America;41.766450000000000;-78.718640000000000;100.897200606913000
camels_03015500;Brokenstraw Creek at Youngsville, PA;United States of America;41.852560000000000;-79.317270000000000;830.320378019690000
camels_03021350;French Creek near Wattsburg, PA;United States of America;42.015330000000000;-79.782550000000000;248.345965025591000
camels_03026500;Sevenmile Run near Rasselas, PA;United States of America;41.631170000000000;-78.576690000000000;20.274691591857100
camels_03028000;West Branch Clarion River at Wilcox, PA;United States of America;41.575340000000000;-78.692250000000000;165.625283244053000
camels_03049000;Buffalo Creek near Freeport, PA;United States of America;40.715900000000000;-79.699490000000000;355.917991218902000
camels_03049800;Little Pine Creek near Etna, PA;United States of America;40.520350000000000;-79.938110000000000;16.049095793625600
camels_03050000;TYGART VALLEY RIVER NEAR DAILEY, WV;United States of America;38.809270000000000;-79.881730000000000;489.086558131083000
camels_03066000;BLACKWATER R AT DAVIS, WV;United States of America;39.127050000000000;-79.468380000000000;224.839419303612000
camels_03069500;CHEAT RIVER NEAR PARSONS, WV;United States of America;39.122880000000000;-79.681170000000000;1,851.584563924460000
camels_03070500;BIG SANDY CREEK AT ROCKVILLE, WV;United States of America;39.615640000000000;-79.704770000000000;517.932839103192000
camels_03076600;BEAR CREEK AT FRIENDSVILLE, MD;United States of America;39.656140000000000;-79.394110000000000;128.070371768890000
camels_03078000;CASSELMAN RIVER AT GRANTSVILLE, MD;United States of America;39.702190000000000;-79.136390000000000;165.062632036391000
camels_03140000;Mill Creek near Coshocton OH;United States of America;40.362850000000000;-81.862360000000000;71.316334187781700
camels_03144000;Wakatomika Creek near Frazeysburg OH;United States of America;40.132570000000000;-82.147920000000000;364.688831529089000
camels_03159540;Shade River near Chester OH;United States of America;39.063690000000000;-81.881800000000000;400.303670615437000
camels_03161000;SOUTH FORK NEW RIVER NEAR JEFFERSON, NC;United States of America;36.393330000000000;-81.406940000000000;533.493945472224000
camels_03164000;NEW RIVER NEAR GALAX, VA;United States of America;36.647350000000000;-80.978970000000000;2,963.305976920170000
camels_03165000;CHESTNUT CREEK AT GALAX, VA;United States of America;36.645960000000000;-80.919240000000000;117.438421231314000
camels_03170000;LITTLE RIVER AT GRAYSONTOWN, VA;United States of America;37.037630000000000;-80.556720000000000;800.012185512516000
camels_03173000;WALKER CREEK AT BANE, VA;United States of America;37.268180000000000;-80.709510000000000;775.765290516362000
camels_03180500;GREENBRIER RIVER AT DURBIN, WV;United States of America;38.543730000000000;-79.833120000000000;346.149574646238000
camels_03182500;GREENBRIER RIVER AT BUCKEYE, WV;United States of America;38.185950000000000;-80.130620000000000;1,364.203228555940000
camels_03186500;WILLIAMS RIVER AT DYER, WV;United States of America;38.379000000000000;-80.483970000000000;331.548142660480000
camels_03187500;CRANBERRY RIVER NEAR RICHWOOD, WV;United States of America;38.295390000000000;-80.526480000000000;207.876191541390000
camels_03213700;TUG FORK AT WILLIAMSON, WV;United States of America;37.673160000000000;-82.280140000000000;2,429.653575437960000
camels_03237280;Upper Twin Creek at McGaw OH;United States of America;38.643690000000000;-83.215740000000000;33.161853510346600
camels_03237500;Ohio Brush Creek near West Union OH;United States of America;38.803680000000000;-83.421020000000000;1,000.435348778970000
camels_03238500;White Oak Creek near Georgetown OH;United States of America;38.858130000000000;-83.928540000000000;563.552241578934000
camels_03241500;Massies Creek at Wilberforce OH;United States of America;39.722840000000000;-83.882710000000000;173.036513593489000
camels_03280700;CUTSHIN CREEK AT WOOTON, KY;United States of America;37.165090000000000;-83.307960000000000;158.715004430560000
camels_03281100;GOOSE CREEK AT MANCHESTER, KY;United States of America;37.152030000000000;-83.760200000000000;425.188011588803000
camels_03281500;SOUTH FORK KENTUCKY RIVER AT BOONEVILLE, KY;United States of America;37.479810000000000;-83.675190000000000;1,835.962691719390000
camels_03285000;DIX RIVER NEAR DANVILLE, KY;United States of America;37.642020000000000;-84.660780000000000;823.120267129264000
camels_03291780;INDIAN-KENTUCK CREEK NR CANAAN, IND.;United States of America;38.878110000000000;-85.257180000000000;71.421590454888600
camels_03300400;BEECH FORK AT MAUD, KY;United States of America;37.832840000000000;-85.296070000000000;1,128.319987570490000
camels_03338780;NORTH FORK VERMILION RIVER NEAR BISMARCK, IL;United States of America;40.265310000000000;-87.642800000000000;691.379280845773000
camels_03340800;BIG RACCOON CREEK NEAR FINCASTLE IND;United States of America;39.812550000000000;-86.953900000000000;363.129321203420000
camels_03346000;NORTH FORK EMBARRAS RIVER NEAR OBLONG, IL;United States of America;39.010040000000000;-87.945590000000000;828.188446092682000
camels_03357350;PLUM CREEK NEAR BAINBRIDGE, IND.;United States of America;39.761710000000000;-86.729450000000000;26.081280747865900
camels_03364500;CLIFTY CREEK AT HARTSVILLE, IN;United States of America;39.274770000000000;-85.701650000000000;242.009402915711000
camels_03366500;MUSCATATUCK RIVER NEAR DEPUTY, IN;United States of America;38.804220000000000;-85.673860000000000;762.079235020261000
camels_03368000;BRUSH CREEK NEAR NEBRASKA, IN;United States of America;39.070330000000000;-85.486080000000000;32.488202712383200
camels_03384450;LUSK CREEK NEAR EDDYVILLE, IL;United States of America;37.472270000000000;-88.547270000000000;112.344538968979000
camels_03439000;FRENCH BROAD RIVER AT ROSMAN, NC;United States of America;35.143330000000000;-82.824720000000000;177.994715166306000
camels_03450000;BEETREE CREEK NEAR SWANNANOA, NC;United States of America;35.653060000000000;-82.405280000000000;14.167080324843200
camels_03455500;W F PIGEON R ABOVE LAKE LOGAN NR HAZELWOOD, NC;United States of America;35.396110000000000;-82.937500000000000;71.276977726318900
camels_03456500;EAST FORK PIGEON RIVER NEAR CANTON, NC;United States of America;35.461670000000000;-82.869720000000000;137.384934353607000
camels_03460000;CATALOOCHEE CREEK NEAR CATALOOCHEE, NC;United States of America;35.667500000000000;-83.073610000000000;127.826178518282000
camels_03463300;SOUTH TOE RIVER NEAR CELO, NC;United States of America;35.831510000000000;-82.184290000000000;113.339244980431000
camels_03471500;S F HOLSTON RIVER AT RIVERSIDE NR CHILHOWIE, VA;United States of America;36.760390000000000;-81.631230000000000;198.068817869265000
camels_03473000;S F HOLSTON RIVER NEAR DAMASCUS, VA;United States of America;36.651780000000000;-81.844010000000000;783.992822517312000
camels_03479000;WATAUGA RIVER NEAR SUGAR GROVE, NC;United States of America;36.239170000000000;-81.822220000000000;237.785107358006000
camels_03488000;N F HOLSTON RIVER NEAR SALTVILLE, VA;United States of America;36.896780000000000;-81.746230000000000;573.582020213583000
camels_03498500;LITTLE RIVER NEAR MARYVILLE, TN;United States of America;35.785620000000000;-83.884600000000000;700.508417775294000
camels_03500000;LITTLE TENNESSEE RIVER NEAR PRENTISS, NC;United States of America;35.150000000000000;-83.379720000000000;362.368077812074000
camels_03500240;CARTOOGECHAYE CREEK NEAR FRANKLIN, NC;United States of America;35.158890000000000;-83.394170000000000;148.973004701500000
camels_03504000;NANTAHALA RIVER NEAR RAINBOW SPRINGS, NC;United States of America;35.127500000000000;-83.618610000000000;134.429799864055000
camels_03574500;PAINT ROCK RIVER NEAR WOODVILLE AL;United States of America;34.624250000000000;-86.306370000000000;859.735390838748000
camels_03592718;LITTLE YELLOW CREEK EAST NR BURNSVILLE, MS;United States of America;34.835560000000000;-88.288060000000000;66.930837447926900
camels_03604000;BUFFALO RIVER NEAR FLAT WOODS, TN;United States of America;35.495910000000000;-87.832800000000000;1,163.665932138030000
camels_04015330;KNIFE RIVER NEAR TWO HARBORS, MN;United States of America;46.946880000000000;-91.792400000000000;225.089054970323000
camels_04024430;NEMADJI RIVER NEAR SOUTH SUPERIOR, WI;United States of America;46.633270000000000;-92.094080000000000;1,092.129938097970000
camels_04027000;BAD RIVER NEAR ODANAH, WI;United States of America;46.486610000000000;-90.696300000000000;1,542.647578188390000
camels_04040500;STURGEON RIVER NEAR SIDNAW, MI;United States of America;46.584110000000000;-88.575970000000000;420.724382935485000
camels_04043050;TRAP ROCK RIVER NEAR LAKE LINDEN, MI;United States of America;47.228540000000000;-88.385390000000000;76.645541883181700
camels_04045500;TAHQUAMENON RIVER NEAR PARADISE, MI;United States of America;46.575020000000000;-85.269550000000000;1,962.825991635020000
camels_04056500;MANISTIQUE RIVER NEAR MANISTIQUE, MI;United States of America;46.030530000000000;-86.161250000000000;2,975.893965897810000
camels_04057510;STURGEON RIVER NEAR NAHMA JUNCTION, MI;United States of America;45.943020000000000;-86.705700000000000;490.305073662570000
camels_04057800;MIDDLE BRANCH ESCANABA RIVER AT HUMBOLDT, MI;United States of America;46.499100000000000;-87.886520000000000;121.507223360728000
camels_04059500;FORD RIVER NEAR HYDE, MI;United States of America;45.755520000000000;-87.201520000000000;1,185.874725980630000
camels_04063700;POPPLE RIVER NEAR FENCE, WI;United States of America;45.763570000000000;-88.463180000000000;370.306035057783000
camels_04074950;WOLF RIVER AT LANGLADE, WI;United States of America;45.189970000000000;-88.733440000000000;1,213.438569784780000
camels_04105700;AUGUSTA CREEK NEAR AUGUSTA, MI;United States of America;42.353370000000000;-85.353890000000000;100.652442798699000
camels_04115265;FISH CREEK NEAR CRYSTAL, MI;United States of America;43.249760000000000;-84.981130000000000;95.977455748056500
camels_04122200;WHITE RIVER NEAR WHITEHALL, MI;United States of America;43.464180000000000;-86.232570000000000;1,020.792679500370000
camels_04122500;PERE MARQUETTE RIVER AT SCOTTVILLE, MI;United States of America;43.945010000000000;-86.278690000000000;1,797.437616694560000
camels_04124000;MANISTEE RIVER NEAR SHERMAN, MI;United States of America;44.436390000000000;-85.698680000000000;2,283.478851010990000
camels_04127918;PINE RIVER NEAR RUDYARD, MI;United States of America;46.185850000000000;-84.597830000000000;601.085175465689000
camels_04127997;STURGEON RIVER AT WOLVERINE, MI;United States of America;45.274460000000000;-84.600030000000000;503.028190261056000
camels_04161580;STONY CREEK NEAR ROMEO, MI;United States of America;42.800860000000000;-83.090210000000000;66.576024142462200
camels_04185000;Tiffin River at Stryker OH;United States of America;41.504500000000000;-84.429670000000000;1,062.931226989930000
camels_04196800;Tymochtee Creek at Crawford OH;United States of America;40.922830000000000;-83.348810000000000;607.635960019091000
camels_04197100;Honey Creek at Melmore OH;United States of America;41.022280000000000;-83.109640000000000;388.666286237854000
camels_04197170;Rock Creek at Tiffin OH;United States of America;41.113670000000000;-83.168250000000000;95.913397249218600
camels_04213000;Conneaut Creek at Conneaut OH;United States of America;41.927000000000000;-80.603970000000000;465.427186789230000
camels_04213075;Brandy Run near Girard, PA;United States of America;41.992000000000000;-80.291170000000000;11.927396118594000
camels_04216418;TONAWANDA CREEK AT ATTICA NY;United States of America;42.863950000000000;-78.283630000000000;196.716662570285000
camels_04221000;GENESEE RIVER AT WELLSVILLE NY;United States of America;42.122290000000000;-77.957220000000000;750.224542898830000
camels_04224775;CANASERAGA CREEK ABOVE DANSVILLE NY;United States of America;42.535620000000000;-77.704160000000000;231.986696850307000
camels_04233000;CAYUGA INLET NEAR ITHACA NY;United States of America;42.393130000000000;-76.544940000000000;92.301858037883500
camels_04256000;INDEPENDENCE RIVER AT DONNATTSBURG NY;United States of America;43.747290000000000;-75.334350000000000;237.610461934611000
camels_04296000;BLACK RIVER AT COVENTRY, VT;United States of America;44.868940000000000;-72.270100000000000;300.279701743760000
camels_05056000;SHEYENNE RIVER NR WARWICK, ND;United States of America;47.805550000000000;-98.716220000000000;5,632.076778853510000
camels_05057000;SHEYENNE RIVER NR COOPERSTOWN, ND;United States of America;47.432770000000000;-98.027600000000000;8,113.276774169850000
camels_05057200;BALDHILL CREEK NR DAZEY, ND;United States of America;47.229160000000000;-98.124820000000000;1,895.486261927640000
camels_05062500;WILD RICE RIVER AT TWIN VALLEY, MN;United States of America;47.266630000000000;-96.244780000000000;2,429.294808968700000
camels_05087500;MIDDLE RIVER AT ARGYLE, MN;United States of America;48.341090000000000;-96.818120000000000;719.013712542386000
camels_05120500;WINTERING RIVER NR KARLSRUHE, ND;United States of America;48.138340000000000;-100.539860000000000;1,724.270506581530000
camels_05123400;WILLOW CREEK NR WILLOW CITY, ND;United States of America;48.588890000000000;-100.442080000000000;3,210.310847760550000
camels_05129115;VERMILION RIVER NR CRANE LAKE, MN;United States of America;48.264630000000000;-92.565990000000000;2,367.244942822660000
camels_05131500;LITTLE FORK RIVER AT LITTLEFORK, MN;United States of America;48.395780000000000;-93.549330000000000;4,331.032111372340000
camels_05291000;WHETSTONE RIVER NEAR BIG STONE CITY, SD;United States of America;45.291630000000000;-96.487560000000000;1,056.506599282040000
camels_05362000;JUMP RIVER AT SHELDON, WI;United States of America;45.308030000000000;-90.956520000000000;1,490.648753846100000
camels_05393500;SPIRIT RIVER AT SPIRIT FALLS, WI;United States of America;45.449130000000000;-89.979310000000000;225.447051639704000
camels_05399500;BIG EAU PLEINE RIVER AT STRATFORD, WI;United States of America;44.821910000000000;-90.079580000000000;577.590964447684000
camels_05408000;KICKAPOO RIVER AT LA FARGE, WI;United States of America;43.574140000000000;-90.643190000000000;688.797699288965000
camels_05412500;Turkey River at Garber, IA;United States of America;42.739990000000000;-91.261800000000000;4,019.315436513800000
camels_05413500;GRANT RIVER AT BURTON, WI;United States of America;42.720270000000000;-90.819290000000000;709.345206692061000
camels_05414000;PLATTE RIVER NEAR ROCKVILLE, WI;United States of America;42.731100000000000;-90.640410000000000;368.036975179078000
camels_05444000;ELKHORN CREEK NEAR PENROSE, IL;United States of America;41.902810000000000;-89.696220000000000;376.600712933382000
camels_05454000;Rapid Creek near Iowa City, IA;United States of America;41.700020000000000;-91.487670000000000;68.375544415167500
camels_05458000;Little Cedar River near Ionia, IA;United States of America;43.033280000000000;-92.503540000000000;782.226921779505000
camels_05466500;EDWARDS RIVER NEAR NEW BOSTON, IL;United States of America;41.186980000000000;-90.967370000000000;1,162.457603612920000
camels_05487980;White Breast Creek near Dallas, IA;United States of America;41.246880000000000;-93.266070000000000;876.867623351440000
camels_05488200;English Creek near Knoxville, IA;United States of America;41.300550000000000;-93.045480000000000;234.560883005699000
camels_05489000;Cedar Creek near Bussey, IA;United States of America;41.219000000000000;-92.908530000000000;973.871239682748000
camels_05495000;Fox River at Wayland, MO;United States of America;40.392410000000000;-91.597880000000000;1,028.251668334750000
camels_05495500;BEAR CREEK NEAR MARCELLINE, IL;United States of America;40.142820000000000;-91.337370000000000;885.377251476355000
camels_05501000;North River at Palmyra, MO;United States of America;39.817990000000000;-91.517700000000000;928.676778670302000
camels_05503800;Crooked Creek near Paris, MO;United States of America;39.584830000000000;-91.993490000000000;212.500878590829000
camels_05507600;Lick Creek at Perry, MO;United States of America;39.431430000000000;-91.676270000000000;275.727644174289000
camels_05508805;Spencer Cr. bl Plum Cr. nr Frankford, MO;United States of America;39.520460000000000;-91.342750000000000;536.100800032430000
camels_05514500;CUIVRE RIVER NEAR TROY, MO;United States of America;39.008800000000000;-90.977540000000000;2,408.287803942180000
camels_05525500;SUGAR CREEK AT MILFORD, IL;United States of America;40.630040000000000;-87.723920000000000;1,156.427410951520000
camels_05556500;BIG BUREAU CREEK AT PRINCETON, IL;United States of America;41.365870000000000;-89.498430000000000;506.249149051746000
camels_05584500;LA MOINE RIVER AT COLMAR, IL;United States of America;40.330320000000000;-90.896240000000000;1,708.911306912960000
camels_05585000;LA MOINE RIVER AT RIPLEY, IL;United States of America;40.024770000000000;-90.631790000000000;3,366.207541069370000
camels_05591550;WHITLEY CREEK NEAR ALLENVILLE, IL;United States of America;39.506700000000000;-88.527560000000000;97.090211904575300
camels_05592050;ROBINSON CREEK NEAR SHELBYVILLE, IL;United States of America;39.405870000000000;-88.896460000000000;260.374634938290000
camels_05592575;HICKORY CREEK NEAR BROWNSTOWN, IL;United States of America;38.936990000000000;-88.952840000000000;116.277029201577000
camels_05593575;LITTLE CROOKED CREEK NEAR NEW MINDEN, IL;United States of America;38.441720000000000;-89.416750000000000;220.600170735068000
camels_05593900;EAST FORK SHOAL CREEK NEAR COFFEEN, IL;United States of America;39.148940000000000;-89.352310000000000;145.669897575137000
camels_05595730;RAYSE CREEK NEAR WALTONVILLE, IL;United States of America;38.253940000000000;-89.039790000000000;233.030773025948000
camels_06037500;Madison River near West Yellowstone MT;United States of America;44.656870000000000;-111.068270000000000;1,125.121168837840000
camels_06043500;Gallatin River near Gallatin Gateway MT;United States of America;45.497430000000000;-111.270510000000000;2,116.029689893050000
camels_06154410;Little Peoples Creek near Hays MT;United States of America;47.966100000000000;-108.660710000000000;47.527218031842000
camels_06188000;LAMAR RIVER NR TOWER FALLS RANGER STATION, YNP;United States of America;44.927720000000000;-110.393810000000000;1,726.655878659650000
camels_06191500;Yellowstone River at Corwin Springs MT;United States of America;45.111880000000000;-110.794380000000000;6,793.097713186930000
camels_06221400;DINWOODY CREEK ABOVE LAKES, NEAR BURRIS, WYO.;United States of America;43.345510000000000;-109.410140000000000;231.461011705663000
camels_06224000;BULL LAKE CREEK ABOVE BULL LAKE, WY;United States of America;43.176900000000000;-109.202910000000000;484.767534818369000
camels_06278300;SHELL CREEK ABOVE SHELL CREEK RESERVOIR, WY;United States of America;44.508020000000000;-107.403690000000000;59.125517302411400
camels_06280300;SOUTH FORK SHOSHONE RIVER NEAR VALLEY, WY;United States of America;44.208280000000000;-109.554890000000000;792.611934545296000
camels_06289000;Little Bighorn River at State Line nr Wyola MT;United States of America;45.006910000000000;-107.615090000000000;471.103795769361000
camels_06291500;Lodge Grass Cr ab Willow C Div nr Wyola MT;United States of America;45.126440000000000;-107.600540000000000;220.210962662112000
camels_06311000;NORTH FORK POWDER RIVER NEAR HAZELTON, WY;United States of America;44.027740000000000;-107.080890000000000;62.970713638931700
camels_06332515;BEAR DEN CREEK NR MANDAREE, ND;United States of America;47.787240000000000;-102.768530000000000;191.174374577762000
camels_06339100;KNIFE RIVER AT MANNING, ND;United States of America;47.236130000000000;-102.769910000000000;528.281227752831000
camels_06339500;KNIFE RIVER NR GOLDEN VALLEY, ND;United States of America;47.154450000000000;-102.059890000000000;3,153.063153377620000
camels_06344600;GREEN RIVER NR NEW HRADEC, ND;United States of America;47.027790000000000;-103.053240000000000;407.888460132219000
camels_06350000;CANNONBALL RIVER AT REGENT, ND;United States of America;46.426670000000000;-102.551830000000000;1,502.923592036560000
camels_06352000;CEDAR CREEK NR HAYNES, ND;United States of America;46.154170000000000;-102.474050000000000;1,439.339684919230000
camels_06353000;CEDAR CREEK NR RALEIGH, ND;United States of America;46.091670000000000;-101.333740000000000;4,593.526217606490000
camels_06354000;CANNONBALL RIVER AT BREIEN, ND;United States of America;46.376110000000000;-100.934440000000000;10,600.224106917700000
camels_06360500;MOREAU R NEAR WHITEHORSE SD;United States of America;45.255820000000000;-100.842920000000000;12,572.509694658000000
camels_06404000;BATTLE CR NEAR KEYSTONE SD;United States of America;43.872490000000000;-103.336580000000000;151.499828862727000
camels_06406000;BATTLE CR AT HERMOSA SD;United States of America;43.828050000000000;-103.196020000000000;436.589495973915000
camels_06408700;RHOADS FORK NEAR ROCHFORD SD;United States of America;44.136650000000000;-103.858540000000000;27.400016972472500
camels_06409000;CASTLE CR ABOVE DEERFIELD RES NEAR HILL CITY SD;United States of America;44.013590000000000;-103.830480000000000;208.992037525154000
camels_06431500;SPEARFISH CR AT SPEARFISH SD;United States of America;44.482480000000000;-103.861590000000000;427.132519233794000
camels_06440200;SOUTH FORK BAD R NEAR COTTONWOOD,SD;United States of America;43.968880000000000;-101.767090000000000;653.865378209538000
camels_06441500;BAD R NEAR FORT PIERRE SD;United States of America;44.326650000000000;-100.384300000000000;8,127.440649232410000
camels_06447000;WHITE R NEAR KADOKA SD;United States of America;43.752500000000000;-101.524870000000000;12,845.193533190500000
camels_06447500;LITTLE WHITE R NEAR MARTIN SD;United States of America;43.166670000000000;-101.630150000000000;791.540964829645000
camels_06450500;LITTLE WHITE R BELOW WHITE RIVER SD;United States of America;43.601390000000000;-100.749860000000000;4,066.695873419260000
camels_06452000;WHITE R NEAR OACOMA SD;United States of America;43.748330000000000;-99.556490000000000;25,768.954367292800000
camels_06453600;PONCA CREEK AT VERDEL, NEBR.;United States of America;42.810990000000000;-98.175860000000000;2,101.131689061370000
camels_06464500;KEYA PAHA R AT WEWELA SD;United States of America;43.028890000000000;-99.780670000000000;2,918.796208745800000
camels_06468170;JAMES RIVER NR GRACE CITY, ND;United States of America;47.558050000000000;-98.862890000000000;2,825.504735900210000
camels_06468250;JAMES RIVER ABOVE ARROWWOOD LAKE NR KENSAL, ND;United States of America;47.399720000000000;-98.797610000000000;3,238.626663279280000
camels_06470800;BEAR CREEK NR OAKES, ND;United States of America;46.225240000000000;-98.071770000000000;993.287158380281000
camels_06477500;FIRESTEEL CR NEAR MOUNT VERNON SD;United States of America;43.776400000000000;-98.245670000000000;1,530.686370806450000
camels_06479215;BIG SIOUX RIVER NR FLORENCE SD;United States of America;45.180800000000000;-97.186190000000000;177.686571051839000
camels_06479438;BIG SIOUX R NEAR WATERTOWN SD;United States of America;45.006080000000000;-97.165080000000000;796.831768341116000
camels_06601000;OMAHA CR AT HOMER, NEBR;United States of America;42.321580000000000;-96.487680000000000;452.382128127407000
camels_06614800;MICHIGAN RIVER NEAR CAMERON PASS, CO.;United States of America;40.496090000000000;-105.865010000000000;4.197621682959500
camels_06622700;NORTH BRUSH CREEK NEAR SARATOGA, WY;United States of America;41.370240000000000;-106.520580000000000;101.487236556165000
camels_06623800;ENCAMPMENT RIVER AB HOG PARK CR, NR ENCAMPMENT, WY;United States of America;41.023580000000000;-106.824770000000000;188.669193060010000
camels_06632400;ROCK CREEK AB KING CANYON CANAL, NR ARLINGTON, WY;United States of America;41.585250000000000;-106.222790000000000;164.870410676656000
camels_06746095;JOE WRIGHT CREEK ABOVE JOE WRIGHT RESERVOIR, CO.;United States of America;40.539980000000000;-105.882790000000000;9.264153457459910
camels_06784000;SOUTH LOUP R AT ST. MICHAEL, NEBR.;United States of America;41.032440000000000;-98.740530000000000;6,377.916547052080000
camels_06803510;LITTLE SALT CREEK NEAR LINCOLN, NEBR.;United States of America;40.893110000000000;-96.681550000000000;118.235492785387000
camels_06803530;ROCK CREEK NEAR CERESCO, NEBR.;United States of America;41.015700000000000;-96.544280000000000;309.217047739447000
camels_06814000;TURKEY C NR SENECA, KS;United States of America;39.947780000000000;-96.108620000000000;716.883245124527000
camels_06847900;PRAIRIE DOG C AB KEITH SEBELIUS LAKE, KS;United States of America;39.769850000000000;-100.100780000000000;1,537.697021593010000
camels_06853800;WHITE ROCK C NR BURR OAK, KS;United States of America;39.899250000000000;-98.250430000000000;596.945738680315000
camels_06876700;SALT C NR ADA, KS;United States of America;39.139070000000000;-97.836960000000000;1,053.048007565110000
camels_06878000;CHAPMAN C NR CHAPMAN, KS;United States of America;39.031110000000000;-97.040290000000000;777.042158447544000
camels_06879650;KINGS C NR MANHATTAN, KS;United States of America;39.101950000000000;-96.595210000000000;12.423931589811900
camels_06885500;BLACK VERMILLION R NR FRANKFORT, KS;United States of America;39.681920000000000;-96.442890000000000;1,074.145462322250000
camels_06888500;MILL C NR PAXICO, KS;United States of America;39.062650000000000;-96.150250000000000;841.620333980470000
camels_06889200;SOLDIER C NR DELIA, KS;United States of America;39.238330000000000;-95.888600000000000;406.290337986729000
camels_06889500;SOLDIER C NR TOPEKA, KS;United States of America;39.099380000000000;-95.724950000000000;765.410953142548000
camels_06892000;STRANGER C NR TONGANOXIE, KS;United States of America;39.116330000000000;-95.010880000000000;1,089.968934888470000
camels_06903400;Chariton River near Chariton, IA;United States of America;40.951890000000000;-93.259850000000000;482.593226931312000
camels_06906800;Lamine River near Otterville, MO;United States of America;38.702250000000000;-92.978830000000000;1,410.682253694610000
camels_06910800;MARAIS DES CYGNES R NR READING, KS;United States of America;38.567010000000000;-95.961630000000000;444.433612913124000
camels_06911900;DRAGOON C NR BURLINGAME, KS;United States of America;38.710690000000000;-95.836030000000000;290.879410798346000
camels_06917000;L OSAGE R AT FULTON, KS;United States of America;38.018970000000000;-94.713670000000000;766.836761626662000
camels_06918460;Turnback Creek above Greenfield, MO;United States of America;37.402370000000000;-93.802030000000000;650.890412453480000
camels_06919500;Cedar Creek near Pleasant View, MO;United States of America;37.834200000000000;-93.875490000000000;1,068.630370960890000
camels_06921070;Pomme de Terre River near Polk, MO;United States of America;37.682650000000000;-93.370330000000000;716.714561460452000
camels_06921200;Lindley Creek near Polk, MO;United States of America;37.750470000000000;-93.266180000000000;328.442002635591000
camels_06934000;Gasconade River near Rich Fountain, MO;United States of America;38.388810000000000;-91.819890000000000;8,263.539255495740000
camels_07014500;Meramec River near Sullivan, MO;United States of America;38.158530000000000;-91.108460000000000;3,849.493301859080000
camels_07056000;Buffalo River near St. Joe, AR;United States of America;35.983180000000000;-92.747550000000000;2,147.880466040700000
camels_07057500;North Fork River near Tecumseh, MO;United States of America;36.623030000000000;-92.248130000000000;1,455.989158634720000
camels_07060710;North Sylamore Creek near Fifty Six, AR;United States of America;35.995350000000000;-92.212650000000000;152.318061218000000
camels_07066000;Jacks Fork at Eminence, MO;United States of America;37.154080000000000;-91.358160000000000;1,050.192754583960000
camels_07067000;Current River at Van Buren, MO;United States of America;36.991380000000000;-91.013510000000000;4,341.013501964070000
camels_07068000;Current River at Doniphan, MO;United States of America;36.622000000000000;-90.847620000000000;5,310.623460214850000
camels_07071500;Eleven Point River near Bardley, MO;United States of America;36.648680000000000;-91.200820000000000;2,029.164872409550000
camels_07083000;HALFMOON CREEK NEAR MALTA, CO.;United States of America;39.172210000000000;-106.389190000000000;66.150617754149500
camels_07142300;RATTLESNAKE C NR MACKSVILLE, KS;United States of America;37.871590000000000;-98.876140000000000;1,922.932149390110000
camels_07145700;SLATE C AT WELLINGTON, KS;United States of America;37.249550000000000;-97.403900000000000;400.510952748793000
camels_07148400;Salt Fork Arkansas River nr Alva, OK;United States of America;36.815030000000000;-98.648140000000000;2,558.930491282360000
camels_07149000;MEDICINE LODGE R NR KIOWA, KS;United States of America;37.039200000000000;-98.470210000000000;2,262.910289021390000
camels_07151500;CHIKASKIA R NR CORBIN, KS;United States of America;37.128910000000000;-97.601440000000000;2,110.835971091180000
camels_07167500;OTTER C AT CLIMAX, KS;United States of America;37.708210000000000;-96.223600000000000;321.196831626052000
camels_07180500;CEDAR C NR CEDAR POINT, KS;United States of America;38.196450000000000;-96.824580000000000;275.651653883463000
camels_07184000;LIGHTNING C NR MCCUNE, KS;United States of America;37.281250000000000;-95.032670000000000;514.638422175080000
camels_07195800;Flint Creek at Springtown, AR;United States of America;36.255480000000000;-94.433940000000000;38.500460417270700
camels_07196900;Baron Fork at Dutch Mills, AR;United States of America;35.880080000000000;-94.486610000000000;106.406001248306000
camels_07197000;Baron Fork at Eldon, OK;United States of America;35.921200000000000;-94.838560000000000;806.957238037412000
camels_07208500;RAYADO CREEK NEAR CIMARRON, NM;United States of America;36.372260000000000;-104.970000000000000;159.578668969232000
camels_07226500;UTE CREEK NEAR LOGAN, NM;United States of America;35.438380000000000;-103.525790000000000;5,244.546096249890000
camels_07261000;Cadron Creek near Guy, AR;United States of America;35.298800000000000;-92.403930000000000;455.838641501000000
camels_07263295;Maumelle River at Williams Junction, AR;United States of America;34.876200000000000;-92.774610000000000;119.150694055539000
camels_07290650;BAYOU PIERRE NR WILLOWS, MS;United States of America;32.017780000000000;-90.876940000000000;1,695.928385774410000
camels_07291000;HOMOCHITTO RIVER AT EDDICETON, MS;United States of America;31.503060000000000;-90.777500000000000;482.716101656902000
camels_07292500;HOMOCHITTO RIVER AT ROSETTA, MS;United States of America;31.324720000000000;-91.109440000000000;2,079.012330528480000
camels_07295000;BUFFALO RIVER NR WOODVILLE, MS;United States of America;31.226940000000000;-91.295560000000000;467.068403210078000
camels_07299670;Groesbeck Ck at SH 6 nr Quanah, TX;United States of America;34.354520000000000;-99.740370000000000;831.212435083438000
camels_07301410;Sweetwater Ck nr Kelton, TX;United States of America;35.473100000000000;-100.120950000000000;773.804730194372000
camels_07301500;North Fork Red River near Carter, OK;United States of America;35.168110000000000;-99.507310000000000;6,885.485961096680000
camels_07315200;E Fk Little Wichita Rv nr Henrietta, TX;United States of America;33.812880000000000;-98.085040000000000;502.898949595957000
camels_07315700;Mud Creek near Courtney, OK;United States of America;34.004260000000000;-97.566970000000000;1,491.581494028980000
camels_07335700;Kiamichi River near Big Cedar, OK;United States of America;34.638440000000000;-94.612720000000000;104.302283916545000
camels_07340300;Cossatot River near Vandervoort, AR;United States of America;34.379550000000000;-94.235760000000000;252.042520698910000
camels_07346045;Black Cypress Bayou at Jefferson, TX;United States of America;32.777920000000000;-94.357420000000000;963.102643697768000
camels_07359610;Caddo River near Caddo Gap, AR;United States of America;34.382780000000000;-93.606110000000000;343.274136664846000
camels_07362100;SMACKOVER CREEK NEAR SMACKOVER, ARK.;United States of America;33.375960000000000;-92.777110000000000;997.086846720863000
camels_07362587;Alum Fork Saline River near Reform, AR;United States of America;34.797590000000000;-92.933510000000000;70.763353709809100
camels_07373000;Big Creek at Pollock, LA;United States of America;31.536290000000000;-92.408470000000000;134.212008675604000
camels_07375000;Tchefuncta River near Folsom, LA;United States of America;30.616020000000000;-90.248690000000000;253.662110399974000
camels_07376000;Tickfaw River at Holden, LA;United States of America;30.503800000000000;-90.677320000000000;650.627541617547000
camels_08013000;CALCASIEU RIVER NR GLENMORA, LA;United States of America;30.996020000000000;-92.673750000000000;1,301.395144599020000
camels_08014500;Whiskey Chitto Creek Near Oberlin, LA;United States of America;30.698750000000000;-92.893190000000000;1,326.756614021880000
camels_08023080;Bayou Grand Cane near Stanley, LA;United States of America;31.979330000000000;-93.934080000000000;199.132220766540000
camels_08025500;Bayou Toro near Toro, LA;United States of America;31.307130000000000;-93.515730000000000;382.834488880960000
camels_08029500;Big Cow Ck nr Newton, TX;United States of America;30.818890000000000;-93.785560000000000;384.624772047939000
camels_08050800;Timber Ck nr Collinsville, TX;United States of America;33.554550000000000;-96.947230000000000;109.153337756077000
camels_08066200;Long King Ck at Livingston, TX;United States of America;30.716310000000000;-94.958820000000000;374.991597955784000
camels_08066300;Menard Ck nr Rye, TX;United States of America;30.481390000000000;-94.779720000000000;391.214742501206000
camels_08070000;E Fk San Jacinto Rv nr Cleveland, TX;United States of America;30.336600000000000;-95.104100000000000;845.744104542286000
camels_08070200;E Fk San Jacinto Rv nr New Caney, TX;United States of America;30.145490000000000;-95.124380000000000;1,007.165573953080000
camels_08079600;DMF Brazos Rv at Justiceburg, TX;United States of America;33.038430000000000;-101.197630000000000;3,514.326061342520000
camels_08082700;Millers Ck nr Munday, TX;United States of America;33.329270000000000;-99.465080000000000;277.082689967845000
camels_08086212;Hubbard Ck bl Albany, TX;United States of America;32.732900000000000;-99.140630000000000;1,590.976157512730000
camels_08086290;Big Sandy Ck abv Breckenridge, TX;United States of America;32.648460000000000;-99.004510000000000;733.820351979760000
camels_08101000;Cowhouse Ck at Pidcoke, TX;United States of America;31.284890000000000;-97.885020000000000;1,185.909179043030000
camels_08103900;S Fk Rocky Ck nr Briggs, TX;United States of America;30.911570000000000;-98.036970000000000;86.273959372591000
camels_08104900;S Fk San Gabriel Rv at Georgetown, TX;United States of America;30.625750000000000;-97.691120000000000;348.154894666128000
camels_08109700;Middle Yegua Ck nr Dime Box, TX;United States of America;30.339380000000000;-96.904700000000000;622.325811016906000
camels_08150800;Beaver Ck nr Mason, TX;United States of America;30.643520000000000;-99.095880000000000;562.550879398858000
camels_08155200;Barton Ck at SH 71 nr Oak Hill, TX;United States of America;30.296320000000000;-97.925570000000000;241.930010392491000
camels_08158700;Onion Ck nr Driftwood, TX;United States of America;30.082990000000000;-98.007790000000000;321.850707589741000
camels_08158810;Bear Ck bl FM 1826 nr Driftwood, TX;United States of America;30.155490000000000;-97.940010000000000;34.040091735899800
camels_08164000;Lavaca Rv nr Edna, TX;United States of America;28.959980000000000;-96.686370000000000;2,123.798756492040000
camels_08164300;Navidad Rv nr Hallettsville, TX;United States of America;29.466910000000000;-96.812760000000000;866.412532020973000
camels_08164600;Garcitas Ck nr Inez, TX;United States of America;28.891380000000000;-96.819150000000000;264.106079550153000
camels_08165300;N Fk Guadalupe Rv nr Hunt, TX;United States of America;30.064100000000000;-99.386990000000000;440.334603861013000
camels_08171300;Blanco Rv nr Kyle, TX;United States of America;29.979380000000000;-97.910000000000000;1,074.875937850260000
camels_08175000;Sandies Ck nr Westhoff, TX;United States of America;29.215250000000000;-97.449430000000000;1,427.336029237050000
camels_08176900;Coleto Ck at Arnold Rd nr Schroeder, TX;United States of America;28.861650000000000;-97.226380000000000;926.448541384556000
camels_08178880;Medina Rv at Bandera, TX;United States of America;29.723840000000000;-99.070040000000000;852.323790046411000
camels_08189500;Mission Rv at Refugio, TX;United States of America;28.291950000000000;-97.279160000000000;1,818.869991435910000
camels_08190000;Nueces Rv at Laguna, TX;United States of America;29.428570000000000;-99.997290000000000;1,925.678689982000000
camels_08190500;W Nueces Rv nr Brackettville, TX;United States of America;29.472730000000000;-100.236460000000000;1,802.554601604230000
camels_08194200;San Casimiro Ck nr Freer, TX;United States of America;27.965010000000000;-98.966970000000000;1,235.302091005680000
camels_08195000;Frio Rv at Concan, TX;United States of America;29.488570000000000;-99.704780000000000;1,011.459333789400000
camels_08196000;Dry Frio Rv nr Reagan Wells, TX;United States of America;29.504680000000000;-99.781450000000000;344.599130692532000
camels_08198500;Sabinal Rv at Sabinal, TX;United States of America;29.314310000000000;-99.480470000000000;641.162774441950000
camels_08200000;Hondo Ck nr Tarpley, TX;United States of America;29.569670000000000;-99.246710000000000;249.577750185004000
camels_08202700;Seco Ck at Rowe Ranch nr D'Hanis, TX;United States of America;29.370790000000000;-99.287820000000000;431.340606454879000
camels_08267500;RIO HONDO NEAR VALDEZ, NM;United States of America;36.541690000000000;-105.556400000000000;96.561955884134000
camels_08269000;RIO PUEBLO DE TAOS NEAR TAOS, NM;United States of America;36.439470000000000;-105.503620000000000;163.212466693644000
camels_08271000;RIO LUCERO NEAR ARROYO SECO, NM;United States of America;36.508360000000000;-105.530840000000000;46.400151432129600
camels_08324000;JEMEZ RIVER NEAR JEMEZ, NM;United States of America;35.661690000000000;-106.743370000000000;1,221.900428545660000
camels_08377900;RIO MORA NEAR TERRERO, NM;United States of America;35.777250000000000;-105.658070000000000;138.906613922298000
camels_08378500;PECOS RIVER NEAR PECOS, NM;United States of America;35.708370000000000;-105.682520000000000;444.877564878679000
camels_08380500;GALLINAS CREEK NEAR MONTEZUMA, NM;United States of America;35.651990000000000;-105.318900000000000;199.538028706826000
camels_09034900;BOBTAIL CREEK NEAR JONES PASS, CO.;United States of America;39.760260000000000;-105.906400000000000;21.275163148824400
camels_09035800;DARLING CREEK NEAR LEAL, CO.;United States of America;39.800540000000000;-106.026410000000000;23.069432062565500
camels_09035900;SOUTH FORK OF WILLIAMS FORK NEAR LEAL, CO.;United States of America;39.795820000000000;-106.030570000000000;71.538507474181900
camels_09047700;KEYSTONE GULCH NEAR DILLON, CO.;United States of America;39.594430000000000;-105.972520000000000;24.561362068034600
camels_09065500;GORE CREEK AT UPPER STATION, NEAR MINTURN, CO.;United States of America;39.625820000000000;-106.278080000000000;37.696156773223600
camels_09066000;BLACK GORE CREEK NEAR MINTURN, CO.;United States of America;39.596380000000000;-106.265030000000000;32.505368905530200
camels_09066200;BOOTH CREEK NEAR MINTURN, CO.;United States of America;39.648320000000000;-106.323080000000000;16.019761930752900
camels_09066300;MIDDLE CREEK NEAR MINTURN, CO.;United States of America;39.645820000000000;-106.382250000000000;15.874685222735100
camels_09081600;CRYSTAL RIVER AB AVALANCHE C, NEAR REDSTONE, CO.;United States of America;39.232210000000000;-107.227270000000000;436.432692835342000
camels_09107000;TAYLOR RIVER AT TAYLOR PARK, CO.;United States of America;38.860270000000000;-106.566700000000000;331.738322610154000
camels_09210500;FONTENELLE C NR HERSCHLER RANCH, NR FONTENELLE, WY;United States of America;42.096050000000000;-110.416560000000000;397.452727155402000
camels_09223000;HAMS FORK BELOW POLE CREEK, NEAR FRONTIER, WY;United States of America;42.110490000000000;-110.709620000000000;333.772404603245000
camels_09306242;CORRAL GULCH NEAR RANGELY, CO.;United States of America;39.920250000000000;-108.472870000000000;87.272411150165500
camels_09312600;WHITE RIVER BL TABBYUNE C NEAR SOLDIER SUMMIT, UT;United States of America;39.875790000000000;-111.037390000000000;198.380877334832000
camels_09352900;VALLECITO CREEK NEAR BAYFIELD, CO.;United States of America;37.477500000000000;-107.543670000000000;187.841016189777000
camels_09378170;SOUTH CREEK ABOVE RESERVOIR NEAR MONTICELLO, UT;United States of America;37.846660000000000;-109.369560000000000;21.745331655161700
camels_09378630;RECAPTURE CREEK NEAR BLANDING, UT;United States of America;37.755550000000000;-109.476510000000000;11.616399114324500
camels_09386900;RIO NUTRIA NEAR RAMAH, NM;United States of America;35.282530000000000;-108.553410000000000;186.250246496732000
camels_09404450;EAST FORK VIRGIN RIVER NEAR GLENDALE, UT;United States of America;37.339430000000000;-112.604380000000000;195.626514072519000
camels_09430500;GILA RIVER NEAR GILA, NM;United States of America;33.061180000000000;-108.537270000000000;4,811.784583991090000
camels_09430600;MOGOLLON CREEK NEAR CLIFF, NM;United States of America;33.166730000000000;-108.649780000000000;190.857795928246000
camels_09447800;BONITA CREEK NEAR MORENCI, AZ.;United States of America;32.955620000000000;-109.531190000000000;777.495126669890000
camels_09480000;SANTA CRUZ RIVER NEAR LOCHIEL, AZ.;United States of America;31.355380000000000;-110.589530000000000;269.436136360290000
camels_09484000;SABINO CREEK NEAR TUCSON, AZ.;United States of America;32.316740000000000;-110.810370000000000;98.823565592178200
camels_09484600;PANTANO WASH NEAR VAIL, AZ.;United States of America;32.035910000000000;-110.677580000000000;1,241.049372686020000
camels_09492400;EAST FORK WHITE RIVER NEAR FORT APACHE, AZ.;United States of America;33.822270000000000;-109.814540000000000;120.368795626694000
camels_09494000;WHITE RIVER NEAR FORT APACHE, AZ.;United States of America;33.736440000000000;-110.166770000000000;1,628.520930210440000
camels_09497800;CIBECUE CREEK NEAR CHYSOTILE, AZ.;United States of America;33.843110000000000;-110.557610000000000;752.256187887787000
camels_09497980;CHERRY CREEK NEAR GLOBE, AZ.;United States of America;33.827830000000000;-110.856230000000000;516.915159111719000
camels_09505200;WET BEAVER CREEK NEAR RIMROCK, AZ.;United States of America;34.674740000000000;-111.672090000000000;287.493126691016000
camels_09505350;DRY BEAVER CREEK NEAR RIMROCK, AZ.;United States of America;34.728630000000000;-111.775710000000000;370.080306649096000
camels_09505800;WEST CLEAR CREEK NEAR CAMP VERDE, AZ.;United States of America;34.538640000000000;-111.694040000000000;625.077280084306000
camels_09508300;WET BOTTOM CREEK NEAR CHILDS, AZ.;United States of America;34.160870000000000;-111.692920000000000;97.862665436681600
camels_09510200;SYCAMORE CREEK NEAR FORT MCDOWELL, AZ.;United States of America;33.694210000000000;-111.541800000000000;428.384165131050000
camels_09512280;CAVE CREEK BLW COTTONWOOD CR NEAR CAVE CREEK, AZ.;United States of America;33.887260000000000;-111.954040000000000;190.343996835798000
camels_09513780;NEW RIVER NEAR ROCK SPRINGS, AZ.;United States of America;33.974200000000000;-112.099050000000000;191.294006611832000
camels_10023000;BIG CREEK NEAR RANDOLPH, UT;United States of America;41.609940000000000;-111.254090000000000;147.024172468833000
camels_10166430;WEST CANYON CREEK NEAR CEDAR FORT, UT;United States of America;40.405230000000000;-112.100500000000000;2,531.640989084250000
camels_10172700;VERNON CREEK NEAR VERNON, UT;United States of America;39.979390000000000;-112.380230000000000;259.644761139709000
camels_10172800;SOUTH WILLOW CREEK NEAR GRANTSVILLE, UT;United States of America;40.496330000000000;-112.574400000000000;76.476405943438400
camels_10173450;MAMMOTH CREEK ABV WEST HATCH DITCH, NEAR HATCH, UT;United States of America;37.622760000000000;-112.516880000000000;281.461578530108000
camels_10205030;SALINA CREEK NEAR EMERY, UT;United States of America;38.911910000000000;-111.530470000000000;150.605700399641000
camels_10234500;BEAVER RIVER NEAR BEAVER, UT;United States of America;38.280530000000000;-112.568270000000000;238.521126532641000
camels_10242000;COAL CREEK NEAR CEDAR CITY, UT;United States of America;37.672200000000000;-113.034670000000000;1,902.184578489300000
camels_10244950;STEPTOE C NR ELY, NV;United States of America;39.201540000000000;-114.689160000000000;29.100683393552600
camels_10249300;S TWIN R NR ROUND MOUNTAIN, NV;United States of America;38.887430000000000;-117.245370000000000;608.210378345441000
camels_10258000;TAHQUITZ C NR PALM SPRINGS CA;United States of America;33.805020000000000;-116.559180000000000;75.851390997398900
camels_10258500;PALM CYN C NR PALM SPRINGS CA;United States of America;33.745020000000000;-116.535570000000000;285.717917930518000
camels_10259000;ANDREAS C NR PALM SPRINGS CA;United States of America;33.760020000000000;-116.550020000000000;23.907829262209800
camels_10259200;DEEP C NR PALM DESERT CA;United States of America;33.631140000000000;-116.392230000000000;284.941392736869000
camels_10263500;BIG ROCK C NR VALYERMO CA;United States of America;34.420830000000000;-117.839510000000000;310.164265423805000
camels_10310500;CLEAR CREEK NEAR CARSON CITY, NV;United States of America;39.113240000000000;-119.798240000000000;47.741008904725100
camels_10316500;LAMOILLE C NR LAMOILLE, NV;United States of America;40.690760000000000;-115.477000000000000;90.835714538336800
camels_10329500;MARTIN C NR PARADISE VALLEY, NV;United States of America;41.534620000000000;-117.417910000000000;513.333653318793000
camels_10336645;GENERAL C NR MEEKS BAY CA;United States of America;39.051850000000000;-120.118520000000000;20.237779215551900
camels_10336660;BLACKWOOD C NR TAHOE CITY CA;United States of America;39.107410000000000;-120.162140000000000;32.375657678705800
camels_10336740;Logan House Ck nr Glenbrook, NV;United States of America;39.066580000000000;-119.935460000000000;7.741831106721140
camels_10343500;SAGEHEN C NR TRUCKEE CA;United States of America;39.431570000000000;-120.237980000000000;27.275495007186600
camels_10348850;GALENA C AT GALENA C STATE PARK;United States of America;39.354350000000000;-119.858520000000000;22.150626557677100
camels_10396000;DONNER UND BLITZEN RIVER NR FRENCHGLEN OR;United States of America;42.790830000000000;-118.867500000000000;967.295312545962000
camels_11098000;ARROYO SECO NR PASADENA CA;United States of America;34.222230000000000;-118.177570000000000;46.588037954083100
camels_11124500;SANTA CRUZ C NR SANTA YNEZ CA;United States of America;34.596660000000000;-119.908750000000000;192.472797925749000
camels_11141280;LOPEZ C NR ARROYO GRANDE CA;United States of America;35.235530000000000;-120.472390000000000;56.169720051155600
camels_11143000;BIG SUR R NR BIG SUR CA;United States of America;36.245800000000000;-121.773290000000000;121.105562725725000
camels_11148900;NACIMIENTO R BL SAPAQUE C NR BRYSON CA;United States of America;35.788580000000000;-121.093810000000000;385.789846874567000
camels_11151300;SAN LORENZO C BL BITTERWATER C NR KING CITY CA;United States of America;36.268020000000000;-121.066300000000000;648.170558878491000
camels_11162500;PESCADERO C NR PESCADERO CA;United States of America;37.260780000000000;-122.328860000000000;119.213322518938000
camels_11176400;ARROYO VALLE BL LANG CN NR LIVERMORE CA;United States of America;37.561320000000000;-121.683840000000000;336.387610883214000
camels_11180500;DRY C A UNION CITY CA;United States of America;37.606050000000000;-122.023850000000000;26.881867083343200
camels_11180960;CULL C AB CULL C RES NR CASTRO VALLEY CA;United States of America;37.717710000000000;-122.054410000000000;18.000004063671500
camels_11224500;LOS GATOS C AB NUNEZ CYN NR COALINGA CA;United States of America;36.214680000000000;-120.470710000000000;325.131236647068000
camels_11230500;BEAR C NR LAKE THOMAS A EDISON CA;United States of America;37.339390000000000;-118.973450000000000;142.261203130859000
camels_11237500;PITMAN C BL TAMARACK C CA;United States of America;37.198560000000000;-119.213730000000000;65.021022013374300
camels_11253310;CANTUA C NR CANTUA CREEK CA;United States of America;36.402170000000000;-120.433490000000000;235.851025775670000
camels_11264500;MERCED R A HAPPY ISLES BRIDGE NR YOSEMITE CA;United States of America;37.731590000000000;-119.558770000000000;471.726664238347000
camels_11266500;MERCED R A POHONO BRIDGE NR YOSEMITE CA;United States of America;37.716870000000000;-119.666280000000000;835.616366487476000
camels_11274500;ORESTIMBA C NR NEWMAN CA;United States of America;37.315490000000000;-121.125210000000000;529.847803098217000
camels_11274630;DEL PUERTO C NR PATTERSON CA;United States of America;37.486600000000000;-121.209100000000000;284.328793305147000
camels_11284400;BIG C AB WHITES GULCH NR GROVELAND CA;United States of America;37.841870000000000;-120.184910000000000;41.793642838016600
camels_11299600;BLACK C NR COPPEROPOLIS CA;United States of America;37.961040000000000;-120.615200000000000;40.992482124374400
camels_11381500;MILL C NR LOS MOLINOS CA;United States of America;40.054600000000000;-122.024150000000000;340.487248705231000
camels_11383500;DEER C NR VINA CA;United States of America;40.014050000000000;-121.948320000000000;633.438685952073000
camels_11451100;NF CACHE C A HOUGH SPRING NR CLEARLAKE OAKS CA;United States of America;39.165450000000000;-122.619990000000000;155.056781763688000
camels_11468500;NOYO R NR FORT BRAGG CA;United States of America;39.428220000000000;-123.737790000000000;273.298661849724000
camels_11473900;MF EEL R NR DOS RIOS CA;United States of America;39.706270000000000;-123.325290000000000;1,928.745671192880000
camels_11475560;ELDER C NR BRANSCOMB CA;United States of America;39.729600000000000;-123.643910000000000;16.902420293793800
camels_11476600;BULL C NR WEOTT CA;United States of America;40.351250000000000;-124.003930000000000;72.318472888775600
camels_11478500;VAN DUZEN R NR BRIDGEVILLE CA;United States of America;40.480420000000000;-123.890880000000000;574.272787819843000
camels_11480390;MAD R AB RUTH RES NR FOREST GLEN CA;United States of America;40.284310000000000;-123.335300000000000;243.077809557624000
camels_11481200;LITTLE R NR TRINIDAD CA;United States of America;41.010960000000000;-124.081730000000000;106.623322358466000
camels_11482500;REDWOOD C A ORICK CA;United States of America;41.299290000000000;-124.051180000000000;723.700970677594000
camels_11522500;SALMON R A SOMES BAR CA;United States of America;41.377630000000000;-123.477560000000000;1,944.055227372160000
camels_11523200;TRINITY R AB COFFEE C NR TRINITY CTR CA;United States of America;41.111260000000000;-122.705580000000000;384.561618590071000
camels_11528700;SF TRINITY R BL HYAMPOM CA;United States of America;40.649860000000000;-123.494200000000000;1,980.384495786250000
camels_11532500;SMITH R NR CRESCENT CITY CA;United States of America;41.791500000000000;-124.076190000000000;1,587.727233743470000
camels_12010000;NASELLE RIVER NEAR NASELLE, WA;United States of America;46.373990000000000;-123.743480000000000;142.392857283842000
camels_12013500;WILLAPA RIVER NEAR WILLAPA, WA;United States of America;46.650930000000000;-123.652660000000000;340.010003657685000
camels_12020000;CHEHALIS RIVER NEAR DOTY, WA;United States of America;46.617320000000000;-123.277640000000000;295.614871815514000
camels_12025000;NEWAUKUM RIVER NEAR CHEHALIS, WA;United States of America;46.620100000000000;-122.945130000000000;409.335052032417000
camels_12025700;SKOOKUMCHUCK RIVER NEAR VAIL, WA;United States of America;46.772600000000000;-122.594010000000000;105.285416026780000
camels_12035000;SATSOP RIVER NEAR SATSOP, WA;United States of America;47.000650000000000;-123.494880000000000;767.063665967820000
camels_12040500;QUEETS RIVER NEAR CLEARWATER, WA;United States of America;47.537860000000000;-124.315750000000000;1,151.940087541020000
camels_12041200;HOH RIVER AT US HIGHWAY 101 NEAR FORKS, WA;United States of America;47.806750000000000;-124.251030000000000;660.603416910971000
camels_12043000;CALAWAH RIVER NEAR FORKS, WA;United States of America;47.960080000000000;-124.392990000000000;347.501886873687000
camels_12048000;DUNGENESS RIVER NEAR SEQUIM, WA;United States of America;48.014260000000000;-123.132680000000000;407.216282714992000
camels_12054000;DUCKABUSH RIVER NEAR BRINNON, WA;United States of America;47.683980000000000;-123.011550000000000;178.428114972257000
camels_12056500;NF SKOKOMISH R BL STAIRCASE RPDS NR HOODSPORT, WA;United States of America;47.514260000000000;-123.329890000000000;146.873955551425000
camels_12073500;HUGE CREEK NEAR WAUNA, WA;United States of America;47.389260000000000;-122.699020000000000;15.746873287864200
camels_12082500;NISQUALLY RIVER NEAR NATIONAL, WA;United States of America;46.752610000000000;-122.083720000000000;358.726227571052000
camels_12092000;PUYALLUP RIVER NEAR ELECTRON, WA;United States of America;46.903720000000000;-122.035110000000000;240.572232308600000
camels_12095000;SOUTH PRAIRIE CREEK AT SOUTH PRAIRIE, WA;United States of America;47.139550000000000;-122.092610000000000;232.251878065922000
camels_12114500;CEDAR RIVER BELOW BEAR CREEK NEAR CEDAR FALLS, WA;United States of America;47.342050000000000;-121.548990000000000;66.351906472070300
camels_12115000;CEDAR RIVER NEAR CEDAR FALLS, WA;United States of America;47.370110000000000;-121.625100000000000;110.727116315169000
camels_12115500;REX RIVER NEAR CEDAR FALLS, WA;United States of America;47.350660000000000;-121.663160000000000;43.217795125874800
camels_12117000;TAYLOR CREEK NEAR SELLECK, WA;United States of America;47.386490000000000;-121.846220000000000;45.056243049045000
camels_12141300;MIDDLE FORK SNOQUALMIE RIVER NEAR TANNER, WA;United States of America;47.485940000000000;-121.647880000000000;402.970327099942000
camels_12143600;SF SNOQUALMIE RIVER AT EDGEWICK, WA;United States of America;47.452600000000000;-121.717880000000000;164.669773235012000
camels_12144000;SF SNOQUALMIE RIVER AT NORTH BEND, WA;United States of America;47.492880000000000;-121.790110000000000;212.336499918585000
camels_12145500;RAGING RIVER NEAR FALL CITY, WA;United States of America;47.539820000000000;-121.909000000000000;83.657461473518600
camels_12147500;NORTH FORK TOLT RIVER NEAR CARNATION, WA;United States of America;47.712320000000000;-121.788730000000000;105.045902816064000
camels_12147600;SOUTH FORK TOLT RIVER NEAR INDEX, WA;United States of America;47.706770000000000;-121.600110000000000;16.119474408997400
camels_12167000;NF STILLAGUAMISH RIVER NEAR ARLINGTON, WA;United States of America;48.261490000000000;-122.047640000000000;689.749939715669000
camels_12175500;THUNDER CREEK NEAR NEWHALEM, WA;United States of America;48.672630000000000;-121.072900000000000;273.163384218479000
camels_12178100;NEWHALEM CREEK NEAR NEWHALEM, WA;United States of America;48.655960000000000;-121.238460000000000;72.562551792405000
camels_12186000;SAUK RIVER AB WHITECHUCK RIVER NEAR DARRINGTON, WA;United States of America;48.168720000000000;-121.470670000000000;397.579505168937000
camels_12189500;SAUK RIVER NEAR SAUK, WA;United States of America;48.424560000000000;-121.568460000000000;1,852.652150858880000
camels_12358500;Middle Fork Flathead River nr West Glacier MT;United States of America;48.495240000000000;-114.010120000000000;2,908.659775674170000
camels_12374250;Mill Cr ab Bassoo Cr nr Niarada MT;United States of America;47.829660000000000;-114.697630000000000;53.188459967738700
camels_12375900;South Crow Creek near Ronan MT;United States of America;47.491600000000000;-114.026770000000000;19.746378509282000
camels_12377150;Mission Cr ab Reservoir nr ST Ignatius MT;United States of America;47.322990000000000;-113.979550000000000;32.350563062609600
camels_12381400;South Fork Jocko River near Arlee MT;United States of America;47.195490000000000;-113.850650000000000;148.280243768688000
camels_12383500;Big Knife Creek near Arlee MT;United States of America;47.147430000000000;-113.974270000000000;17.691754516408400
camels_12388400;Revais Cr bl West Fork nr Dixon MT;United States of America;47.266320000000000;-114.406790000000000;76.440857761394500
camels_12390700;Prospect Creek at Thompson Falls MT;United States of America;47.586050000000000;-115.355150000000000;468.448360304686000
camels_12411000;NF COEUR D ALENE R AB SHOSHONE CK NR PRICHARD ID;United States of America;47.706110000000000;-115.979170000000000;863.554478856797000
camels_12414500;ST JOE RIVER AT CALDER ID;United States of America;47.274640000000000;-116.189050000000000;2,653.973192780110000
camels_12447390;ANDREWS CREEK NEAR MAZAMA, WA;United States of America;48.822920000000000;-120.145920000000000;58.290583753506400
camels_12451000;STEHEKIN RIVER AT STEHEKIN, WA;United States of America;48.329580000000000;-120.691770000000000;827.689181995680000
camels_12488500;AMERICAN RIVER NEAR NILE, WA;United States of America;46.977620000000000;-121.168700000000000;205.752466968988000
camels_13011500;PACIFIC CREEK AT MORAN WY;United States of America;43.850280000000000;-110.517780000000000;404.542651755658000
camels_13011900;BUFFALO FORK AB LAVA CREEK NR MORAN WY;United States of America;43.838060000000000;-110.441110000000000;846.526571062328000
camels_13018300;CACHE CREEK NEAR JACKSON, WY;United States of America;43.452150000000000;-110.704090000000000;29.606770935252000
camels_13023000;GREYS RIVER AB RESERVOIR NR ALPINE WY;United States of America;43.142780000000000;-110.976670000000000;1,161.745227501620000
camels_13083000;TRAPPER CREEK NR OAKLEY ID;United States of America;42.165830000000000;-113.983610000000000;181.872286892193000
camels_13161500;BRUNEAU RIVER AT ROWLAND NV;United States of America;41.933240000000000;-115.674530000000000;988.816212495031000
camels_13235000;SF PAYETTE RIVER AT LOWMAN ID;United States of America;44.085280000000000;-115.622220000000000;1,156.351116276000000
camels_13240000;LAKE FORK PAYETTE RIVER AB JUMBO CR NR MCCALL ID;United States of America;44.913610000000000;-115.997220000000000;125.915413491165000
camels_13310700;SF SALMON RIVER NR KRASSEL RANGER STATION ID;United States of America;44.986940000000000;-115.725000000000000;852.809874134395000
camels_13313000;JOHNSON CREEK AT YELLOW PINE ID;United States of America;44.961670000000000;-115.500000000000000;564.051096778214000
camels_13331500;MINAM RIVER NEAR MINAM, OR;United States of America;45.619870000000000;-117.726590000000000;617.595628585245000
camels_13337000;LOCHSA RIVER NR LOWELL ID;United States of America;46.150830000000000;-115.587220000000000;3,044.241985969200000
camels_13338500;SF CLEARWATER RIVER AT STITES ID;United States of America;46.086390000000000;-115.976670000000000;3,018.523944958310000
camels_13340000;CLEARWATER RIVER AT OROFINO ID;United States of America;46.478330000000000;-116.257500000000000;14,234.867598672100000
camels_13340600;NF CLEARWATER RIVER NR CANYON RANGER STATION ID;United States of America;46.840470000000000;-115.620700000000000;3,346.432314819090000
camels_14020000;UMATILLA RIVER ABOVE MEACHAM CREEK, NR GIBBON, OR;United States of America;45.719580000000000;-118.323290000000000;342.262647171596000
camels_14092750;SHITIKE CR, AT PETERS PASTURE, NR WARM SPRINGS, OR;United States of America;44.750390000000000;-121.633400000000000;64.929554917309500
camels_14096850;BEAVER CREEK, BLW QUARTZ CR, NR SIMNASHO, OR.;United States of America;44.958730000000000;-121.394230000000000;383.583341529299000
camels_14137000;SANDY RIVER NEAR MARMOT, OR;United States of America;45.399560000000000;-122.137310000000000;674.822752190495000
camels_14138800;BLAZED ALDER CREEK NEAR RHODODENDRON, OREG.;United States of America;45.452620000000000;-121.891470000000000;21.714397991504600
camels_14138870;FIR CREEK NEAR BRIGHTWOOD, OR;United States of America;45.480120000000000;-122.025640000000000;15.304206908406400
camels_14138900;NORTH FORK BULL RUN RIVER NEAR MULTNOMAH FALLS, OR;United States of America;45.494290000000000;-122.035920000000000;21.997812461567300
camels_14139800;SOUTH FORK BULL RUN RIVER NEAR BULL RUN, OR;United States of America;45.444560000000000;-122.109530000000000;41.311684307555800
camels_14141500;LITTLE SANDY RIVER NEAR BULL RUN, OREG.;United States of America;45.415400000000000;-122.171480000000000;60.230061963733600
camels_14154500;ROW RIVER ABOVE PITCHER CREEK NEAR, DORENA, OREG;United States of America;43.735960000000000;-122.873400000000000;548.576294340035000
camels_14158500;MCKENZIE RIVER AT OUTLET OF CLEAR LAKE, OR;United States of America;44.360950000000000;-121.995620000000000;122.806235543447000
camels_14158790;SMITH R AB SMITH R RES NR BELKNAP SPRGS,OREG.;United States of America;44.334570000000000;-122.047010000000000;40.657520024994700
camels_14166500;LONG TOM RIVER NEAR NOTI, OREG.;United States of America;44.049840000000000;-123.426210000000000;237.658137343215000
camels_14182500;LITTLE NORTH SANTIAM RIVER NEAR MEHAMA, OR;United States of America;44.791510000000000;-122.578970000000000;292.110240843461000
camels_14185000;SOUTH SANTIAM RIVER BELOW CASCADIA, OR;United States of America;44.391790000000000;-122.497580000000000;448.577039349644000
camels_14185900;QUARTZVILLE CREEK NEAR CASCADIA, OREG.;United States of America;44.540120000000000;-122.435910000000000;257.820823027750000
camels_14187000;WILEY CREEK NEAR FOSTER, OR;United States of America;44.372350000000000;-122.623140000000000;137.735171254933000
camels_14216500;MUDDY CREEK BELOW CLEAR CREEK NEAR COUGAR, WA;United States of America;46.075670000000000;-121.998700000000000;349.191320057576000
camels_14222500;EAST FORK LEWIS RIVER NEAR HEISSON, WA;United States of America;45.836780000000000;-122.466210000000000;328.497707764174000
camels_14236200;TILTON RIVER AB BEAR CANYON CREEK NEAR CINEBAR, WA;United States of America;46.595380000000000;-122.459560000000000;363.171835656221000
camels_14301000;NEHALEM RIVER NEAR FOSS, OR;United States of America;45.704000000000000;-123.755400000000000;1,740.840676926210000
camels_14303200;TUCCA CREEK NEAR BLAINE, OR.;United States of America;45.324280000000000;-123.546500000000000;7.898884132037020
camels_14305500;SILETZ RIVER AT SILETZ, OR;United States of America;44.715120000000000;-123.887330000000000;525.308704688529000
camels_14306340;EAST FORK LOBSTER CREEK NEAR ALSEA, OR.;United States of America;44.247900000000000;-123.636490000000000;14.607325664624700
camels_14306500;ALSEA RIVER NEAR TIDEWATER, OR;United States of America;44.385950000000000;-123.831780000000000;859.083912124087000
camels_14308990;COW CREEK ABV GALESVILLE RES, NR AZALEA, OR.;United States of America;42.823180000000000;-123.125890000000000;171.065320922052000
camels_14309500;WEST FORK COW CREEK NEAR GLENDALE, OR;United States of America;42.804000000000000;-123.610910000000000;225.814827077764000
camels_14316700;STEAMBOAT CREEK NEAR GLIDE, OR;United States of America;43.349840000000000;-122.728940000000000;587.014742416679000
camels_14325000;SOUTH FORK COQUILLE RIVER AT POWERS, OR;United States of America;42.891500000000000;-124.070650000000000;444.208440724738000
camels_14362250;STAR GULCH NEAR RUCH, OR.;United States of America;42.154010000000000;-123.075320000000000;43.884538132987800
camels_14400000;CHETCO RIVER NEAR BROOKINGS, OR;United States of America;42.123440000000000;-124.187310000000000;702.235808631075000
camelsaus_102101A;Pascoe River at Fall Creek;Australia;-12.880277778000000;142.983055556000000;650.144107008026000
camelsaus_104001A;Stewart River at Telegraph Road;Australia;-14.168611111000000;143.393888889000000;475.005424280382000
camelsaus_105101A;Normanby River at Battle Camp (105101A);Australia;-15.281388889000000;144.838611111000000;2,315.857321914460000
camelsaus_105102A;Laura River at Coalseam Creek;Australia;-15.613333333000000;144.483611111000000;1,326.028031477950000
camelsaus_105105A;East Normanby River at Development Road;Australia;-15.771111111000000;145.014166667000000;297.195263985134000
camelsaus_107001B;Endeavour River at Flaggy;Australia;-15.423333333000000;145.067222223000000;341.544569376288000
camelsaus_108002A;Daintree River at Bairds;Australia;-16.179444444000000;145.281944445000000;912.813362236429000
camelsaus_108003A;Bloomfield River at China Camp;Australia;-15.988333333000000;145.287500000000000;263.562536193506000
camelsaus_112002A;Fisher Creek at Nerada (112002A);Australia;-17.564166667000000;145.907500000000000;16.074816063443600
camelsaus_112102A;Liverpool Creek at Upper Japoonvale (112102A);Australia;-17.715000000000000;145.905277778000000;78.172639757668100
camelsaus_113004A;Cochable Creek at Powerline (113004A);Australia;-17.739722222000000;145.630000000000000;93.690739780860300
camelsaus_116006B;Herbert River at Abergowrie (116006B);Australia;-18.492777778000000;145.922222223000000;7,481.297248236560000
camelsaus_116010A;Blencoe Creek at Blencoe Falls;Australia;-18.204444444000000;145.537777778000000;227.584856380631000
camelsaus_116011A;Millstream River at Ravenshoe (116011A);Australia;-17.605000000000000;145.477500000000000;90.904227584770100
camelsaus_116012A;Cameron Creek at 8.7KM;Australia;-18.065277778000000;145.341944445000000;352.351030363990000
camelsaus_116013A;Millstream river at Archer Creek;Australia;-17.651944444000000;145.341111111000000;320.449243124002000
camelsaus_116014A;Wild River at Silver Valley;Australia;-17.625000000000000;145.298888889000000;587.590529560043000
camelsaus_116015A;Blunder Creek at Wooroora;Australia;-17.735277778000000;145.438055556000000;126.417071323150000
camelsaus_121001A;Don River at Ida Creek;Australia;-20.289444444000000;148.116111111000000;605.758044124166000
camelsaus_122004A;Gregory river at Lower Gregory (122004A);Australia;-20.300000000000000;148.547222223000000;46.711607050206700
camelsaus_126003A;Carmila Creek at Carmila (126003A);Australia;-21.915555556000000;149.398611112000000;83.852241643184300
camelsaus_136202D;Barambah Creek at Litzows;Australia;-26.301111111000000;152.044444445000000;651.299236989940000
camelsaus_136203A;Barker Creek at Brooklands;Australia;-26.733888889000000;151.820555556000000;311.296126977306000
camelsaus_136208A;Boonara Creek at Ettiewyn;Australia;-25.902777778000000;151.844166667000000;1,395.239846573240000
camelsaus_137101A;Gregory River at Burrum Highway;Australia;-25.086666667000000;152.240833334000000;454.683717399849000
camelsaus_137201A;Isis River at Bruce Highway;Australia;-25.266944444000000;152.368611112000000;445.456374653873000
camelsaus_138004B;Munna Creek at Marodian;Australia;-25.903611111000000;152.349166667000000;1,192.201725214850000
camelsaus_138009A;Tinana Creek at Tagigan Road;Australia;-26.078611111000000;152.783888889000000;101.562922179907000
camelsaus_138010A;Wide Bay Creek at Kilkivan;Australia;-26.079444444000000;152.220000000000000;352.441548010129000
camelsaus_138113A;Kandanga Creek at Hygait;Australia;-26.390000000000000;152.644444445000000;170.784392994899000
camelsaus_143009A;Brisbane River at Gregors Creek (143009A);Australia;-26.996388889000000;152.408611112000000;3,877.784958419470000
camelsaus_143110A;Bremer River at Adams Bridge;Australia;-27.827500000000000;152.510833334000000;125.932539368721000
camelsaus_143303A;Stanley River at Peachester;Australia;-26.838888889000000;152.840555556000000;104.334454754765000
camelsaus_145010A;Running Creek at 5.8KM Deickmans Bridge;Australia;-28.246388889000000;152.891111112000000;132.647141286766000
camelsaus_145011A;Teviot Brook at Croftby (145011A);Australia;-28.147777778000000;152.570833334000000;82.964959576094100
camelsaus_145018A;Burnett Creek at Up Stream Maroon Dam (145018A);Australia;-28.219722222000000;152.608333334000000;81.721958512544600
camelsaus_145101D;Albert River at Lumeah Number 2;Australia;-28.053055556000000;153.045277778000000;167.103349254272000
camelsaus_145107A;Canungra Creek at Main Rd Bridge (145107A);Australia;-27.996666667000000;153.158333334000000;99.955583325123400
camelsaus_146010A;Coomera River at Army Camp (146010A);Australia;-28.025833333000000;153.193055556000000;97.192480506064500
camelsaus_146012A;Currumbin Creek at Nicolls Bridge (146012A);Australia;-28.178333333000000;153.424166667000000;30.190961797448700
camelsaus_146014A;Back Creek at Beechmont (146014A);Australia;-28.123333333000000;153.190000000000000;6.841276247617430
camelsaus_146095A;Tallebudgera Creek at Tallebudgera Ck Rd (146095A);Australia;-28.149444445000000;153.403611112000000;56.449009797606500
camelsaus_204034;Henry River at Newton Boyd;Australia;-29.763055556000000;152.213333334000000;400.965600492312000
camelsaus_206014; Wollomombi River at Coninside;Australia;-30.476388889000000;152.028333334000000;370.424327053782000
camelsaus_206018;Apsley River at Apsley Falls;Australia;-31.049722222000000;151.766111112000000;864.026010406319000
camelsaus_208007;Nowendoc River at Nowendoc;Australia;-31.516388889000000;151.716388889000000;222.537974998535000
camelsaus_208009;Barnard River at Barry;Australia;-31.579166667000000;151.315277778000000;151.766351223606000
camelsaus_210006;Goulburn River at Coggan (210006);Australia;-32.342777778000000;150.101388889000000;3,388.988851793210000
camelsaus_210011;William River at Tillegra;Australia;-32.318888889000000;151.688055556000000;196.046671521279000
camelsaus_211008;Jigadee Creek at Avondale (211008);Australia;-33.071666667000000;151.470000000000000;66.380150800876600
camelsaus_212209;Nepean River at Maguires Crossing (212209);Australia;-34.476388889000000;150.533333334000000;70.288939610066800
camelsaus_212260;Kowmung River at Cedar Ford;Australia;-33.947222222000000;150.244444445000000;714.837913531891000
camelsaus_215002;Shoalhaven River at Warri ;Australia;-35.340833334000000;149.739444445000000;1,395.408583301580000
camelsaus_215004;Corang River at Hockeys;Australia;-35.146944445000000;150.033055556000000;163.718619662085000
camelsaus_215207;Shoalhaven River at Fossickers Flat;Australia;-34.818900752000000;150.182922668000000;4,678.042247730560000
camelsaus_216002;Clyde River at Brooman;Australia;-35.468055556000000;150.237222223000000;858.791368747610000
camelsaus_216004;Currambene Creek at Falls Creek (216004);Australia;-34.970277778000000;150.598611112000000;93.409664130903800
camelsaus_218001;Tuross River at Tuross Vale (218001);Australia;-36.265000000000000;149.510555556000000;90.044146972165400
camelsaus_219001;Rutherford Creek at Brown Mountain (219001);Australia;-36.593888889000000;149.442500000000000;15.328188933656500
camelsaus_221207;Errinundra River at Errinundra;Australia;-37.447222222000000;148.914166667000000;157.848748273362000
camelsaus_221210;Genoa River at The Gorge;Australia;-37.416388889000000;149.518611112000000;837.615367122332000
camelsaus_222206;Buchan River at Buchan;Australia;-37.494722222000000;148.174722223000000;847.816678145527000
camelsaus_222213;Suggan Buggan River at Suggan Buggan;Australia;-36.954722222000000;148.326666667000000;363.176177431581000
camelsaus_223202;Tambo River at Swifts Creek;Australia;-37.268055556000000;147.728055556000000;894.676425904851000
camelsaus_224206;Wonnangatta River at Crooked River;Australia;-37.406388889000000;147.088055556000000;1,102.704990869100000
camelsaus_224213A;Dargo River at Lower Dargo Rd;Australia;-37.493888889000000;147.271388889000000;666.048388048754000
camelsaus_224214A;Wentworth River at Tabberabbera;Australia;-37.494444445000000;147.393333334000000;440.749229706897000
camelsaus_225020A;South Cascade Creek at Thomson Valley Road (225020A);Australia;-37.833333334000000;146.354166667000000;11.527105780744200
camelsaus_225110A;Jordan River at D/S Johnsons Creek;Australia;-37.683611111000000;146.318611111000000;132.312519168303000
camelsaus_225219;Macalister River at Glencairn;Australia;-37.516111111000000;146.566111111000000;571.992468495808000
camelsaus_226220;Loch River at Noojee;Australia;-37.866666667000000;146.006111111000000;103.915278585211000
camelsaus_226222;Latrobe River at Near Noojee (226222);Australia;-37.881944445000000;145.892500000000000;64.661081785679800
camelsaus_226407;Morwell River at Boolarra;Australia;-38.407500000000000;146.304722223000000;114.921720836311000
camelsaus_227225A;Tarra River at Fischers (227225A);Australia;-38.469722222000000;146.555277778000000;20.262190618673100
camelsaus_227226;Tarwin River East Branch  at Dumbalk North;Australia;-38.499722222000000;146.160833334000000;127.054003575962000
camelsaus_227227;Wilkur Creek at Leongatha;Australia;-38.393333334000000;145.957222223000000;105.261028998207000
camelsaus_229650A;Aldermans Creek at RD 32 (229650A);Australia;-37.721388889000000;145.941111111000000;25.494728018234700
camelsaus_229661A;Walshes Creek at RD 1 (229661A);Australia;-37.633611111000000;145.926666667000000;54.433916197275200
